county,state,season,latitude,longitude,date,classification,temperature_high,temperature_low,dew_point,humidity,cloud_cover,moon_phase,precip_intensity,pressure,uv_index,visibility,wind_bearing,wind_speed
Baxter County,Arkansas,Summer,36.37139,-92.25139,8/11/2001,Class B,88.66,71.29,69.07,0.78,0.33,0.73,,1015.91,10,9.02,297,0.29
Kittitas County,Washington,Fall,46.98333,-121.0922,9/1/1983,Class B,57.85,48.84,45.6,0.76,0.68,0.8,0.0472,1014.03,4,4.9,251,9.77
Clackamas County,Oregon,Spring,45.03255,-122.4808,6/8/2000,Class B,59.36,47.87,49.63,0.86,0.98,0.23,0.0006,1012.38,5,10,263,4.74
Douglas County,Oregon,Summer,43.7827,-123.9599,6/25/1978,Class B,64.53,52.65,52.14,0.82,0.83,0.68,,1023.07,5,9.35,227,0.6
Tillamook County,Oregon,Summer,45.7351,-123.466,8/19/2000,Class B,57.98,36.25,48.62,0.97,0.77,0.65,0.0178,1020.65,5,9.54,302,0.56
Neosho County,Kansas,Fall,37.44208,-95.35479,10/1/1975,Class B,62.2,35.21,42.12,0.69,0.21,0.87,,1025.71,6,10,356,8.28
Holmes County,Florida,Summer,30.98555,-85.6489,8/15/1976,Class A,94.05,73.65,72.03,0.74,0.22,0.68,,1016.7,9,6.63,172,2.1
Ouray County,Colorado,Summer,38.48959,-107.7,8/24/1996,Class B,78.07,58.25,47.56,0.49,0.01,0.35,,1017.02,10,10,140,4.88
Kittitas County,Washington,Summer,47.47745,-121.0415,7/30/2000,Class C,77.29,57.33,57.94,0.74,0,0.99,0,1017.6,9,10,229,8.78
Russell County,Alabama,Fall,32.31435,-85.16235,9/15/1981,Class A,87.57,69.34,69.27,0.89,0.71,0.55,0.0364,1013.77,7,5.56,230,1.89
Saline County,Arkansas,Fall,34.55056,-92.34083,8/11/2001,Class A,89.34,74.79,73.36,0.85,0.82,0.73,0.0275,1016.08,7,6.74,216,4.52
Clackamas County,Oregon,Summer,45.40023,-122.2777,7/22/2000,Class B,67.02,54.32,56.02,0.84,0.94,0.7,0.0025,1019.7,4,9.93,202,3.13
Tucker County,West Virginia,Summer,39.06881,-79.32608,7/23/2000,Class B,62.22,51.72,54.23,1,0.87,0.73,0,1021.96,6,7.89,30,0.02
Lane County,Oregon,Summer,43.7667,-123.455,7/15/1999,Class B,78.81,52.9,44.79,0.61,0,0.1,0,1014.23,10,10,330,3.11
Tuscaloosa County,Alabama,Summer,33.28375,-87.32655,7/15/1999,Class A,86.54,70.34,70.47,0.8,0.38,0.1,,1020.03,10,7.54,85,1.9
Gadsden County,Florida,Winter,30.6645,-84.60745,12/18/1994,Class A,63.27,38.24,47.89,0.79,0.8,0.52,0,1019.95,3,5.88,323,5.46
Miami County,Ohio,Summer,39.9784,-84.1735,9/1/2000,Class B,86.07,69.79,71,0.82,0.48,0.12,0.0031,1015.9,5,8.87,95,2.54
Cleburne County,Alabama,Fall,33.7065,-85.57415,9/15/1994,Class B,86.65,66.65,63.62,0.79,0.25,0.36,,1018.8,7,5.77,71,5.55
Marshall County,Kentucky,Spring,36.8207,-88.41175,4/15/1990,Class A,54.15,42.25,43.41,0.89,0.74,0.67,0.003,1018.15,4,6.83,114,2.44
Pierce County,Washington,Summer,47.0044,-122.5386,8/16/2000,Class B,75.81,46.25,48.06,0.64,0.12,0.55,0,1024.39,7,8.82,292,1.04
Crittenden County,Arkansas,Winter,35.14639,-90.18444,10/15/1983,Class B,76.14,55.91,42.93,0.56,0,0.31,0,1021.02,6,9.45,139,4.57
Alamosa County,Colorado,Summer,37.57915,-105.4979,8/20/2000,Class A,65.15,31.13,42.2,0.87,0.16,0.68,0.0034,1020.16,11,9.34,352,2.17
Portage County,Ohio,Summer,40.98596,-81.11642,8/1/2000,Class A,81.52,66.27,66.35,0.78,0.65,0.06,0,1014.42,6,6.91,212,8.6
Humboldt County,California,Summer,41.16,-123.9,5/31/2006,Class B,65.92,52.1,50.49,0.94,0.47,0.15,0.0021,1018.42,7,8.68,313,0.43
Hocking County,Ohio,Summer,39.58157,-82.36887,7/11/2000,Class A,80.95,60.94,68.26,0.85,0.55,0.35,,1013.66,9,7.76,51,4.36
Yakima County,Washington,Summer,46.8733,-121.3051,7/21/2000,Class B,80.08,52.17,55.23,0.74,0.02,0.66,0,1015.35,9,7.95,230,8.21
Snohomish County,Washington,Spring,47.79111,-122.1914,5/12/1999,Class B,50.55,42.84,42.4,0.83,0.99,0.9,0.0208,1018.23,4,9.44,171,1.37
Parker County,Texas,Fall,32.7,-98.03333,10/17/2003,Class A,77.13,46.08,52.25,0.63,0,0.73,0,1021.34,6,10,2,3.16
Tipton County,Tennessee,Fall,35.5035,-89.91499,10/15/1981,Class B,80.05,66.03,60.86,0.75,0.94,0.58,,1022,4,6.92,83,1.16
Madison County,Alabama,Winter,34.95605,-86.4559,11/15/1983,Class A,55.21,41.33,43.82,0.74,0.96,0.34,0.032,1010.21,3,7.28,289,11.81
Kittitas County,Washington,Fall,47.3178,-121.2802,10/8/2000,Class A,64.57,50.53,31.69,0.41,0.05,0.35,0,1017.1,4,10,192,1.47
Morgan County,Alabama,Fall,34.5422,-86.66465,10/10/2000,Class A,66.51,31.19,26.19,0.51,0,0.41,0,1028.85,6,10,25,3.49
Fayette County,West Virginia,Fall,38,-81,11/1/1998,Class B,66.11,43.6,43.44,0.74,0,0.41,0,1018.87,4,7.18,6,2.01
Duval County,Florida,Summer,30.2333,-81.52915,9/22/2000,Class A,82.09,75.26,76.81,0.91,0.33,0.81,0.0162,1016.23,5,8.52,140,5.03
Limestone County,Alabama,Summer,34.9263,-87.02025,8/20/1993,Class A,92.63,70.65,74.23,0.83,0.58,0.11,0.0034,1015.8,7,5.52,228,1.48
Klamath County,Oregon,Summer,42.47,-122.275,8/15/1998,Class B,74.58,46.68,53.09,0.79,0.04,0.78,0,1013.19,9,10,322,6.02
Pitkin County,Colorado,Summer,39.1084,-107.0153,8/23/2000,Class A,67.48,38.7,41.79,0.75,0.28,0.79,,1021.54,10,10,166,2.58
Pierce County,Washington,Fall,47.0274,-122.3003,10/7/2000,Class A,74.76,43.94,38.93,0.61,0.06,0.32,0,1015.06,4,8.41,209,2.14
Crawford County,Missouri,Summer,37.8597,-91.432,8/15/1977,Class A,88.9,74.84,69.83,0.73,0.2,0.02,,1017.04,8,8.42,147,7.67
Placer County,California,Summer,39.01917,-120.8275,6/17/2000,Class B,84.1,69.16,40.29,0.29,0,0.53,,1004.55,11,10,89,3.8
Marion County,Iowa,Fall,41.3675,-92.9008,10/24/2000,Class A,75.63,63.03,59.59,0.84,0.72,0.91,0,1026.92,4,4.92,124,3.63
Ascension Parish,Louisiana,Fall,30.1878,-90.8493,10/23/2000,Class A,83.21,57.28,62.69,0.75,0.17,0.87,0,1026.63,4,8.05,99,7.16
Humboldt County,California,Summer,40.80222,-124.1625,6/1/1957,Class A,62.72,47.59,50.53,0.86,0.18,0.12,,1019.23,10,6.86,307,2.15
Park County,Colorado,Summer,39.2026,-106.1143,9/21/2000,Class B,53.92,34.11,32.42,0.81,0.68,0.78,0.0083,1003.38,4,9.25,345,2.19
Multnomah County,Oregon,Fall,45.63893,-122.8889,10/15/1994,Class A,56.11,36.19,43.41,0.88,0.64,0.38,0,1016.21,3,10,284,0.94
Polk County,Oregon,Fall,45.06215,-123.7027,10/30/2000,Class A,58.77,37.89,41.76,0.88,0,0.12,,1019.83,3,9.16,318,0.35
Douglas County,Oregon,Fall,44.55505,-123.3604,10/4/1980,Class A,81.77,46.67,48.37,0.75,0.19,0.87,0,1016.49,4,8.03,328,0.67
Lewis County,Washington,Fall,46.71,-122.3442,9/22/1990,Class B,85.25,45.7,49.01,0.77,0.06,0.12,,1015.62,5,7.98,314,1.45
Colbert County,Alabama,Fall,34.80405,-87.50905,11/15/1999,Class A,61.84,35.75,29.62,0.43,0,0.23,0,1018.53,4,10,0,7.32
Brevard County,Florida,Fall,28.3725,-80.8595,9/15/1989,Class A,86.77,73.57,73.98,0.78,0.53,0.51,0,1015.1,6,9.94,143,3.42
Broward County,Florida,Winter,26.27395,-80.1937,1/15/1975,Class A,71.94,64.03,45.69,0.6,0.33,0.1,0,1023.08,4,9.59,21,11.35
Broward County,Florida,Summer,26.08285,-80.21025,7/15/1980,Class A,92.33,75.1,74.98,0.8,0.9,0.11,0.0425,1016.69,5,6.7,261,3.4
Marion County,Florida,Winter,29.01175,-82.03495,10/28/2000,Class B,84.19,55.41,54.49,0.7,0,0.05,,1019.78,6,8.83,40,0.86
Clay County,Florida,Unknown,30.05705,-81.75165,8/15/1986,Class A,89.39,73.68,72.55,0.8,0.54,0.35,0.0016,1015.26,8,6.53,263,4.6
Collier County,Florida,Winter,26.15915,-81.76041,11/19/1983,Class A,79.44,63,58.46,0.76,0.39,0.47,0,1017.51,5,9.31,109,6.88
Prince William County,Virginia,Summer,38.52019,-77.36115,7/1/1957,Class A,80.19,58.64,56.53,0.58,0.18,0.14,0,1010.21,9,9.87,324,8.1
Tillamook County,Oregon,Summer,45.5891,-123.5469,8/2/1998,Class A,86.07,51.85,55.31,0.73,0.02,0.32,,1021.79,9,,327,1.4
Clackamas County,Oregon,Summer,45.12545,-122.533,7/15/1995,Class A,82.2,58.24,53.92,0.67,0.18,0.62,0,1021.51,9,10,5,4.77
Stone County,Missouri,Summer,36.63621,-93.31413,8/1/1981,Class B,88.19,69.1,68.82,0.78,0.45,0.06,,1020.86,9,5.44,128,6.93
Marion County,Florida,Summer,29.19395,-81.9233,7/25/1997,Class A,91.5,74.46,72.34,0.76,0.1,0.7,,1017.75,9,9.93,196,2.85
Okaloosa County,Florida,Fall,30.51295,-86.5065,9/15/1996,Class A,86.29,76.78,70.24,0.75,0.59,0.08,,1012.36,5,6.89,134,7.18
Osceola County,Florida,Spring,28.3609,-80.93504,3/13/1999,Class A,75.78,67.34,58.68,0.74,0.6,0.86,0,1015.86,5,8.71,116,8.5
Osceola County,Florida,Spring,28.1382,-81.0621,5/21/1999,Class A,84.08,69.16,67.19,0.71,0.64,0.23,0,1019.11,8,7.57,92,8.16
Pasco County,Florida,Summer,28.3836,-82.6053,6/15/1984,Class A,87.97,75.88,70.76,0.79,0.52,0.57,0.0005,1018.77,8,9.46,107,4.96
Volusia County,Florida,Spring,28.85025,-80.93919,4/17/1989,Class A,79.2,61.71,63.15,0.73,0.82,0.39,0,1020.79,5,8.69,79,8.74
Volusia County,Florida,Fall,28.9935,-80.933,10/15/1999,Class B,78.83,75.2,72.42,0.91,0.86,0.19,0.0418,1011.6,4,8.75,76,10.58
Ward County,North Dakota,Spring,48.25422,-101.3166,4/21/2000,Class A,79.51,38.4,31.01,0.32,0.34,0.6,,1011.47,6,10,237,11.14
Limestone County,Alabama,Spring,34.92855,-87.1105,4/15/1978,Class A,76.72,41.68,42.34,0.55,0.56,0.26,0,1019.14,5,9.91,40,2.63
Midland County,Michigan,Fall,43.74,-84.58583,11/15/1997,Class A,30.2,14.81,25.35,0.9,0.98,0.54,,1013.21,2,5.51,6,6.5
Sanilac County,Michigan,Summer,43.26806,-82.53083,8/15/1987,Class A,91.38,72.72,71.19,0.79,0.43,0.72,,1014.05,8,,189,12.63
Teller County,Colorado,Fall,38.8922,-105.1058,9/11/1999,Class A,62.97,31.57,42.95,0.72,0.58,0.07,0.0011,1010.99,6,10,354,7.22
Shelby County,Ohio,Fall,40.24354,-84.18491,11/1/1982,Class A,75.21,60.82,57.38,0.69,0.68,0.51,0,1014.29,3,9.29,213,11.02
Delaware County,Ohio,Summer,40.15002,-83.02854,8/15/1989,Class A,83.44,64.62,63.08,0.72,0.62,0.44,,1014.49,5,3.42,220,3.56
Douglas County,Colorado,Fall,39.21338,-105.0652,9/28/1998,Class A,77.59,43.93,32.97,0.47,0.36,0.25,,1014.25,6,10,133,3.63
Chelan County,Washington,Spring,47.4644,-120.6705,5/22/1977,Class B,68.24,50.25,30.85,0.43,0.5,0.14,,1007.11,9,10,131,0.18
Clallam County,Washington,Summer,48.1609,-124.7312,7/18/1984,Class A,65.61,44.5,45.54,0.72,0.21,0.68,0,1021.06,9,8.75,304,5.6
Clark County,Washington,Summer,45.8581,-122.4089,6/14/1989,Class A,60.68,51.62,56.94,0.97,1,0.35,0.0136,1016.46,4,7.67,128,0.94
Clark County,Washington,Summer,45.69,-122.3353,6/28/1985,Class B,74.92,52.1,43.96,0.6,0.16,0.37,0,1018.46,10,10,305,4.94
Columbia County,Washington,Fall,46.37944,-117.9458,9/15/1991,Class A,79.08,48.12,35.85,0.43,0.07,0.25,,1021.12,6,10,74,1.34
Jefferson County,Washington,Spring,47.7442,-122.8994,4/14/1996,Class B,67.2,47.73,37.61,0.59,0.28,0.89,,1016.23,6,10,123,1.96
Jefferson County,Washington,Spring,47.57778,-124.2933,3/19/1999,Class C,66.4,42.44,40.13,0.69,0.02,0.08,0,1017.18,5,10,47,7.27
Grays Harbor County,Washington,Summer,46.9782,-123.3893,7/1/1995,Class A,77.36,58.44,50.97,0.58,0.77,0.12,0,1013.81,6,8.39,216,8.29
King County,Washington,Winter,47.425,-121.4142,11/26/1982,Class A,22.87,21.95,15.6,0.79,0.67,0.35,0.0039,1021.57,1,5.8,82,13
Grays Harbor County,Washington,Fall,47.2475,-123.8886,10/15/1997,Class A,70.8,50.98,54.56,0.88,0.62,0.49,,1022.65,2,9.41,106,3.64
Umatilla County,Oregon,Fall,45.84175,-117.991,3/5/2001,Class A,40.44,19.77,31.04,1,0.54,0.36,,1019.24,4,8.01,172,3.05
Portage County,Ohio,Summer,41.13021,-81.11578,8/15/1999,Class B,74.73,53.46,54.91,0.71,0.43,0.15,0,1020.51,5,9.16,14,5.37
Santa Rosa County,Florida,Winter,30.84015,-86.9648,1/15/1982,Class A,53.51,41.19,29.73,0.74,0.41,0.71,,1019.92,4,6.85,222,2.28
Clark County,Ohio,Winter,39.92821,-83.64597,11/1/1989,Class B,51.68,36.34,34.11,0.77,0.56,0.09,0,1023.9,3,8.67,208,3.84
Skamania County,Washington,Spring,45.75056,-121.6508,5/1/1950,Class B,47.28,33.33,40.33,0.86,0.85,0.48,,1003.53,4,10,278,6.5
Anderson County,Kentucky,Fall,37.95708,-84.97527,1/9/2005,Class A,51.43,43.05,35.31,0.75,0.51,0.97,0,1024.94,2,9.76,191,6.2
Hillsborough County,Florida,Summer,27.7068,-82.45165,6/16/1984,Class A,87.43,74.37,72.19,0.78,0.89,0.6,0,1020.33,5,8.9,98,9
Smith County,Texas,Fall,32.13972,-95.32,10/22/2003,Class A,90.67,60.47,55.16,0.55,0,0.89,0,1014.86,6,9.8,248,2.8
Umatilla County,Oregon,Spring,45.99215,-118.0811,3/20/2001,Class A,50.3,27.28,29.98,0.72,0,0.87,,1023.02,5,10,134,3.22
Snohomish County,Washington,Spring,47.8925,-122.0111,4/17/1995,Class A,54.28,41.19,39.11,0.69,0.96,0.58,,1011.91,4,8.5,173,8.73
Seminole County,Florida,Fall,28.662,-81.31985,10/15/1981,Class B,79.81,57.13,65.88,0.83,0.3,0.58,,1017.74,5,8.87,8,10.19
Clallam County,Washington,Fall,47.9261,-123.3769,1/4/2001,Class A,29.57,27.75,27.18,1,0.99,0.32,0.0694,1018.55,1,3.49,205,0.98
Chelan County,Washington,Summer,47.29833,-120.3,7/15/2000,Class B,74.56,46.89,40.46,0.49,0,0.48,,1021.18,9,10,302,3.45
Gasconade County,Missouri,Unknown,38.441,-91.6284,6/30/1954,Class B,92.51,72.53,63.91,0.59,0.44,0.01,,1017.96,8,,197,4.53
Henry County,Missouri,Fall,38.46253,-93.91737,11/20/1998,Class B,55.87,28.87,31.38,0.68,0.21,0.05,,1023.67,3,7,248,5.86
Ashtabula County,Ohio,Winter,41.72134,-80.88494,12/28/2000,Class A,19.77,14.36,12,0.81,1,0.09,0.0005,1021.35,1,5.12,315,4.56
Marion County,Missouri,Spring,39.8397,-91.6533,6/15/1997,Class A,81.13,64.95,62.12,0.69,0.94,0.33,,1010.46,5,9.61,171,10.24
Lubbock County,Texas,Winter,33.45278,-101.5361,1/6/2001,Class B,57.36,35.4,32.84,0.68,0,0.38,0,1012.06,3,10,289,8.64
Grays Harbor County,Washington,Winter,47.0413,-124.053,12/1/2000,Class B,46.42,46.42,42.88,0.9,0.97,0.18,,1017.42,1,8.59,85,10.92
Lancaster County,Nebraska,Unknown,40.84792,-96.6824,6/30/1980,Class A,98.22,72.08,61.13,0.54,0.3,0.58,0,1011.12,10,10,133,9.66
Kittitas County,Washington,Winter,47.14472,-120.7967,1/1/1997,Class B,43.9,38.52,33.62,0.73,0.89,0.74,0.0308,997.2,1,3.86,225,4.29
Dallas County,Iowa,Fall,41.59377,-93.974,11/15/1978,Class A,37.01,33.33,25.23,0.72,0.97,0.53,0,1029.07,2,10,66,3.95
Cabell County,West Virginia,Summer,38.38096,-82.52633,7/1/1980,Class B,83.32,66.39,58.89,0.7,0.66,0.61,0,1016.88,5,8.67,197,2.01
Marion County,West Virginia,Winter,39.52122,-80.37878,12/1/1978,Class A,51.46,34.43,22.7,0.62,0.18,0.05,,1018.4,2,9.57,197,2.17
Marion County,West Virginia,Spring,39.54114,-80.11329,4/20/1999,Class A,53.77,41.44,39.33,0.72,0.78,0.17,0.0171,1015.14,5,9.14,317,2.75
Pendleton County,West Virginia,Winter,38.87813,-79.3434,1/28/1998,Class A,35.39,28.4,31.98,0.9,1,0.01,0.0201,1013.13,2,2.99,344,2.85
Randolph County,West Virginia,Fall,38.95242,-79.42547,9/23/1997,Class A,56.29,44.23,49.73,0.96,0.96,0.75,0.0001,1020.8,4,7.71,356,0.91
Wayne County,West Virginia,Fall,38.12764,-82.59822,9/1/1983,Class A,82.37,65.27,64.27,0.78,0.56,0.8,0,1015.28,6,3.07,52,4.72
Lincoln County,Oregon,Summer,44.96651,-123.7718,7/15/2000,Class B,55.05,36.97,44.19,0.97,0,0.48,,1020.76,10,9.66,342,11.85
Eagle County,Colorado,Summer,39.4627,-106.6035,9/19/2000,Class B,62.86,37.65,36.25,0.7,0.25,0.7,0,1009.03,7,10,304,4.23
Walla Walla County,Washington,Winter,46.03333,-117.9486,1/16/2001,Class B,22.27,20.32,22.09,1,1,0.76,,1033.09,1,4.67,268,1.45
Greenup County,Kentucky,Winter,38.53187,-82.7989,1/4/2001,Class A,30.56,27.54,22.9,0.81,0.94,0.31,0.0002,1020.63,2,8.64,236,5.94
Polk County,Iowa,Winter,41.62183,-93.63804,2/15/2000,Class A,58.43,18.48,27.73,0.68,0.47,0.36,0.0003,1011.4,3,6.27,259,5.38
Woodbury County,Iowa,Summer,42.50817,-96.40213,8/9/1997,Class A,78.64,57.25,63.1,0.84,0.46,0.2,0.0005,1012.32,7,7.7,164,2.91
Orange County,Florida,Spring,28.6901,-81.5446,4/15/1980,Class A,75.02,52.01,47.92,0.6,0.12,0.03,,1017.75,9,10,276,9.85
Muskogee County,Oklahoma,Fall,35.70166,-95.70208,9/28/1997,Class A,76.54,46.91,57.37,0.75,0.15,0.91,,1012.75,6,9.56,17,3.74
Logan County,Oklahoma,Summer,35.74111,-97.479,7/7/1997,Class A,84.98,72.68,67.66,0.8,0.45,0.09,0.0003,1016.5,7,8.41,164,9.83
Caddo County,Oklahoma,Spring,34.9575,-98.31556,3/1/1992,Class A,74.31,47.48,40.33,0.52,0.43,0.91,,1017.88,5,8.88,181,5.82
Geary County,Kansas,Summer,39.1489,-96.9614,7/20/1980,Class A,101.92,69.5,63.1,0.46,0.68,0.26,,1011.36,5,9.21,214,6.03
Caddo Parish,Louisiana,Fall,32.7817,-93.9467,11/15/1987,Class A,71.16,62.15,62.59,0.86,0.98,0.81,0.1184,1012.01,3,6.78,138,11.56
Miami County,Kansas,Fall,38.6234,-94.6837,10/15/1998,Class A,78.92,60.91,60,0.75,0.05,0.85,,1010.87,5,7.82,169,15.67
Riley County,Kansas,Unknown,39.1463,-96.8223,1/18/2001,Class A,37.58,12.36,22.34,0.8,0.48,0.82,0.0088,1020.35,2,8.03,328,2.37
Sedgwick County,Kansas,Summer,37.52947,-97.60829,7/10/1978,Class A,87.86,67.48,66.95,0.7,0.58,0.16,0,1016.56,9,10,57,9.52
Sedgwick County,Kansas,Fall,37.64103,-97.40294,11/15/1975,Class A,67.63,41.95,33.35,0.55,0.33,0.4,0,1015.48,3,10,179,8.16
Sedgwick County,Kansas,Unknown,37.7715,-97.424,5/24/1998,Class B,84.88,59.18,57.07,0.67,0.42,0.96,0.0017,1011.47,7,7.66,89,7.9
Jackson County,Kansas,Unknown,39.33292,-95.84024,1/1/1960,Class A,39.9,22.97,31.51,0.84,0.94,0.11,0,1012.14,2,8.52,151,15.86
Amite County,Mississippi,Winter,31.1603,-90.71574,1/1/1973,Class A,48.36,39.38,37.56,0.78,0.95,0.91,,1023.19,3,7.04,23,10.87
Lauderdale County,Mississippi,Spring,32.3372,-88.74805,4/30/1977,Class A,81.27,53.35,54.35,0.7,0.08,0.39,0,1021,10,7.83,180,2.43
Lowndes County,Mississippi,Unknown,33.50025,-88.40335,8/6/1978,Class A,86.17,69.26,67.77,0.73,0.6,0.08,,1019.55,5,,332,1.52
Douglas County,Colorado,Fall,39.42923,-104.9677,9/2/1997,Class A,70.71,56.29,58.57,0.86,0.95,0.02,,1026.48,5,8.24,21,3.9
Eagle County,Colorado,Spring,39.6632,-106.8085,3/21/2000,Class A,51.16,20.74,20.68,0.58,0.25,0.56,0.0004,1011.37,7,9.89,260,3.92
St. Charles County,Missouri,Summer,38.655,-90.675,8/1/1976,Class A,78.35,64.3,56.86,0.69,0.36,0.2,0,1019.06,8,9.44,24,8.11
El Paso County,Colorado,Fall,38.8993,-104.9743,11/1/1997,Class A,43.68,20.06,21.8,0.65,0.2,0.04,0,1020.34,4,10,350,11.99
Fremont County,Colorado,Spring,38.54166,-104.9908,4/14/1998,Class A,47.81,29.42,31.65,0.78,0.69,0.59,0.0005,1007.88,6,8.47,7,10.02
Park County,Colorado,Summer,39.40305,-105.8226,9/4/1998,Class B,73.88,39.71,32.01,0.45,0,0.43,,1015.41,9,10,206,3.25
Teller County,Colorado,Fall,38.71225,-105.1744,10/1/1986,Class B,59.04,37.26,32.62,0.67,0.26,0.92,0,1010.62,6,10,120,3.48
Teller County,Colorado,Unknown,38.753,-105.1598,1/15/1981,Class A,32.62,10.14,10.71,0.64,0.85,0.34,0,1021.29,2,10,22,2.35
King County,Washington,Fall,47.2831,-121.9258,10/17/1984,Class A,49.28,35.85,35.51,0.78,0.75,0.75,0.0002,1014.16,2,8.2,192,3.69
King County,Washington,Spring,47.29944,-122.1806,4/18/1973,Class A,47.18,40.98,37.55,0.79,0.97,0.54,0.0159,1012.63,4,9.6,185,8.86
King County,Washington,Summer,47.5225,-121.7569,5/13/1970,Class B,58.56,45.59,39.64,0.74,0.58,0.26,0.0008,1026.64,7,8.71,184,3.6
King County,Washington,Summer,47.425,-121.4317,8/15/1984,Class B,72.32,58.28,42.66,0.52,0.11,0.63,0,1014.2,8,8.67,229,7.36
King County,Washington,Spring,47.3958,-121.5356,5/18/1998,Class B,52.18,43.2,31.55,0.59,0.85,0.74,0.0055,1021.94,4,6.02,256,7.96
King County,Washington,Summer,47.5103,-122.0456,8/17/1983,Class C,72.65,55.21,53.9,0.75,0.15,0.32,0,1016.33,8,10,358,6.08
King County,Washington,Spring,47.1826,-121.7713,6/18/1990,Class A,63.37,52.79,44.18,0.65,0.39,0.85,0,1023.92,8,7.32,261,7.23
King County,Washington,Fall,47.1998,-121.7565,9/13/1995,Class B,73.7,44.28,48.57,0.63,0.1,0.66,0,1020.41,6,9.58,44,1.68
Kitsap County,Washington,Summer,47.5279,-122.3454,6/22/1991,Class A,65.17,53.35,51.5,0.79,0.97,0.37,0,1017.52,5,8.67,273,2.3
Siskiyou County,California,Spring,41.45833,-122.4306,3/4/1999,Class A,40.3,24.58,21.61,0.63,0.63,0.58,0,1021.3,4,9.87,350,4.44
Kitsap County,Washington,Summer,47.7613,-122.7063,6/25/1988,Class A,74.24,56.43,51.91,0.63,0.76,0.36,0,1014.07,5,10,187,7.33
Kittitas County,Washington,Summer,47.25722,-120.8908,7/5/1997,Class B,71.75,53.75,46.09,0.55,0.51,0.04,,1014.73,9,8.6,252,8.18
Levy County,Florida,Summer,29.4179,-82.55556,6/15/1991,Class A,90.26,69.26,70.72,0.74,0.48,0.12,,1017.47,8,7.05,169,1.93
Talladega County,Alabama,Summer,33.48665,-85.8175,7/15/2000,Class B,92.42,64.53,64.68,0.66,0.05,0.47,0,1008.54,11,8.25,331,4.64
Comal County,Texas,Summer,29.57444,-98.03083,7/1/1993,Class B,91.99,76.21,71.02,0.69,0.78,0.43,0,1014.31,6,8.24,168,12.21
Yakima County,Washington,Winter,46.93333,-121.2692,10/28/2000,Class B,38.19,31.19,32.1,0.95,0.79,0.05,0.0074,1000.2,2,7.99,120,4.47
Hood River County,Oregon,Fall,45.5666,-121.7745,10/1/1974,Class B,73.32,43.72,40.72,0.75,0.49,0.51,,1015.99,3,8.83,263,1.18
Schuyler County,New York,Fall,42.32724,-76.75318,9/13/1999,Class A,76.42,59.91,52.91,0.67,0.31,0.13,,1018.6,6,9.997,188,7.98
La Salle Parish,Louisiana,Spring,31.6825,-92.3104,4/5/2000,Class A,73.08,49.94,43.04,0.63,0,0.03,,1021.19,9,10,197,5.98
Rapides Parish,Louisiana,Unknown,31.3799,-92.37835,7/15/1978,Class A,95.62,73.86,67.28,0.62,0.79,0.33,0.0041,1012.76,5,7.64,224,2.76
Rapides Parish,Louisiana,Summer,31.1375,-92.4976,7/15/1977,Class A,94.38,73.65,70.4,0.66,0.48,0.97,0,1019.09,10,6.68,84,2.54
Rapides Parish,Louisiana,Summer,31.3058,-92.4054,6/1/1981,Class A,87.59,70,67.2,0.75,0.57,0.97,0,1012.71,7,6.35,174,1.33
Yakima County,Washington,Summer,46.87139,-121.2981,6/13/2000,Class B,50.63,49.72,44.19,0.92,1,0.4,0.0075,1026.06,5,3.04,259,9.36
King County,Washington,Summer,47.4317,-121.7731,2/17/1996,Class B,52.42,48.44,48.46,0.99,1,0.96,0.0108,1009.34,2,6.56,135,6.03
Lake County,Florida,Fall,29.08405,-81.59005,10/15/1996,Class B,81.34,68.21,62.43,0.73,0.11,0.1,,1018.05,6,10,65,7.37
Mason County,Washington,Summer,47.1305,-123.0966,7/18/1960,Class A,86.1,53.92,54.94,0.62,0.09,0.84,0,1017.43,9,9.26,13,2.32
Union Parish,Louisiana,Fall,32.8057,-92.40895,11/15/1977,Class A,73.63,59.78,50.05,0.73,0.55,0.17,,1016.73,3,6.74,167,7.05
Jefferson County,Ohio,Fall,40.36957,-80.77387,11/1/1981,Class A,67.06,51.88,39.49,0.61,0.67,0.15,0,1028.34,3,8.07,147,2.69
Webster Parish,Louisiana,Unknown,32.4197,-93.4386,6/15/1979,Class B,86.43,65.75,62.09,0.67,0.12,0.69,0,1018.39,10,8.1,135,1.81
Snohomish County,Washington,Fall,48.0028,-121.9572,9/20/2000,Class A,57.84,52.59,54.01,0.94,0.89,0.74,,1015.38,3,4.04,296,0.61
Lewis And Clark County,Montana,Summer,46.76472,-111.8861,8/16/1977,Class A,81.01,48.08,43.53,0.53,0.18,0.06,0,1022.23,8,10,300,4.64
La Salle Parish,Louisiana,Fall,31.6825,-92.3104,11/18/2000,Class A,39.67,37.07,37.11,0.95,0.95,0.75,0.0439,1023.1,3,7.72,43,7.76
Grant Parish,Louisiana,Winter,31.4871,-92.3309,12/6/1996,Class A,76.98,56.62,59.39,0.85,0.51,0.86,,1008.79,2,8.91,214,9.55
Decatur County,Iowa,Summer,40.59604,-93.77783,6/14/2000,Class A,72.36,57.95,58.77,0.77,0.75,0.43,,1005.99,8,9.25,246,11.99
Mason County,Washington,Spring,47.3542,-123.2334,4/14/1996,Class B,70.36,50.7,39.21,0.59,0.2,0.89,0,1016.13,7,9.9,182,0.8
Mason County,Washington,Fall,47.27667,-122.8858,10/15/1993,Class A,56.5,48.63,51.51,0.89,0.99,0.01,0.0187,1011.98,2,5.86,358,0.73
Pierce County,Washington,Winter,47.00444,-122.5386,3/13/2000,Class B,56.65,44.41,41.72,0.85,0.94,0.27,0.0243,1017.29,3,7.64,214,2.44
Thurston County,Washington,Summer,46.9363,-122.7607,7/26/1985,Class B,85.87,48.73,47.04,0.5,0.09,0.32,0,1016.96,9,9.38,0,2.47
Pierce County,Washington,Summer,47.32944,-122.5789,8/18/1999,Class B,73,58.37,57.1,0.82,0.79,0.24,0,1015.48,5,7.23,221,4.67
Thurston County,Washington,Spring,46.94913,-122.6869,5/3/1990,Class A,70.1,42.28,49.18,0.73,0.78,0.31,0,1026.5,5,7.97,7,2.07
Pierce County,Washington,Winter,47.05472,-121.8211,11/16/1979,Class B,29.63,29.46,26,0.9,0.54,0.9,0.0015,1016.86,1,4.48,92,8.4
Pierce County,Washington,Winter,47.3724,-122.5819,1/1/1996,Class B,50.29,47.59,44.41,0.88,0.99,0.38,0.0008,1028.02,1,8.33,165,4.36
Pierce County,Washington,Spring,47.15556,-122.4328,4/16/1980,Class B,67.31,43.59,38.36,0.65,0.62,0.07,0,1018.73,6,8.3,246,2.17
Pierce County,Washington,Fall,47.01278,-121.4642,11/28/1997,Class A,30.9,29.08,28.49,1,0.98,0.95,0.0226,1012.94,1,1.36,91,3.2
Pierce County,Washington,Winter,47.3704,-122.782,12/7/1979,Class A,50.18,41.64,43.73,0.86,0.95,0.64,0.001,1021.51,1,7.42,122,0.3
Thurston County,Washington,Summer,46.94917,-122.6869,8/16/1967,Class A,93.71,55.25,51.53,0.51,0.11,0.39,0,1013.97,8,7.47,290,2.24
Pierce County,Washington,Summer,47.01278,-121.4642,6/10/1995,Class A,53.22,31.28,39.63,0.86,0.8,0.41,0,1016.55,5,8.02,110,4.04
Missoula County,Montana,Summer,46.97694,-113.8381,7/14/1977,Class A,76.73,43.8,39.06,0.55,0.08,0.94,0,1019.89,9,10,334,0.8
Skagit County,Washington,Summer,48.36861,-122.2778,8/9/1986,Class A,61.76,49.7,55.2,0.98,0.08,0.13,,1011.39,7,7,245,3.4
Morrow County,Ohio,Summer,40.38609,-82.69884,6/1/1977,Class A,79.12,50.16,47.71,0.46,0.48,0.49,,1007.62,8,9.83,267,14.24
Floyd County,Iowa,Fall,43.17215,-92.76577,8/1/1977,Class A,85.47,60.62,54.96,0.72,0.18,0.58,,1016.33,8,10,221,7.98
Cass County,Texas,Summer,33.18528,-94.25556,7/15/1997,Class B,80.39,73.19,72.63,0.84,0.15,0.34,,1017.18,11,7.65,212,2.41
Umatilla County,Oregon,Summer,45.5,-118.42,6/15/1976,Class A,69.78,46.97,40.01,0.62,0.54,0.63,0,1013.77,9,8.65,285,4.3
Missoula County,Montana,Summer,47.03222,-114.0906,7/13/1989,Class C,78.24,53.23,59.1,0.81,0.58,0.33,0.0105,1019.68,8,9.13,349,7.85
Skamania County,Washington,Spring,45.62778,-122.0194,4/29/1978,Class A,62.96,46.55,38.66,0.65,0.52,0.74,0,1019.03,8,9.7,308,2.12
Snohomish County,Washington,Unknown,48.2475,-121.9425,5/14/1958,Class A,74.55,50.62,43.48,0.54,0.69,0.87,,1021.11,4,9.87,22,1.97
Snohomish County,Washington,Unknown,48.11556,-122.0958,1/11/1980,Class A,40.02,35.95,30.05,0.79,1,0.79,,992.79,1,7.2,126,12.43
Snohomish County,Washington,Unknown,47.9817,-122.0447,7/13/1988,Class A,64.91,54.61,53.87,0.78,0.98,0.01,,1014.83,4,10,32,0.55
Snohomish County,Washington,Winter,47.7853,-121.6647,2/6/2000,Class A,49.5,40.49,42.43,0.92,0.6,0.04,,1024.68,2,10,111,7
Thurston County,Washington,Summer,46.803,-122.4133,8/15/1973,Class B,63.13,51.25,49.17,0.87,0.76,0.55,0,1017.95,4,7.56,236,2.11
Thurston County,Washington,Fall,46.803,-122.4133,9/16/1981,Class B,81.82,52.32,54.42,0.77,0.16,0.59,0,1015.55,5,9.69,271,1.25
Thurston County,Washington,Summer,46.803,-122.4133,7/29/1977,Class A,71.46,48.13,50.11,0.71,0.41,0.47,0,1024.95,7,10,261,1.65
Thurston County,Washington,Spring,46.985,-122.7669,5/16/1984,Class A,58.93,42.41,40.87,0.7,0.66,0.56,0,1019.04,5,8.88,201,4.98
Whatcom County,Washington,Summer,48.78056,-122.1483,6/16/1976,Class B,57.14,42.66,50.78,1,0.82,0.66,,1015.9,4,6.39,202,7.22
Pierce County,Washington,Unknown,46.9974,-122.1694,8/16/1996,Class A,69.26,49.41,53.33,0.78,0.73,0.07,,1020.74,5,8.69,224,4.54
Yakima County,Washington,Summer,46.71444,-120.6694,8/30/1996,Class A,80.85,45.75,48.96,0.58,0,0.58,0,1012.12,7,9.95,283,7.82
Kittitas County,Washington,Unknown,46.97944,-121.0939,10/25/1997,Class A,48.41,39.41,30.36,0.6,0.44,0.83,,1024.45,3,10,92,2.91
Yakima County,Washington,Fall,46.5602,-121.1458,11/1/1996,Class B,35.23,8.21,17.75,0.97,0,0.7,0,1029.8,2,8.63,280,2.41
Spokane County,Washington,Winter,47.92528,-117.1153,12/28/1961,Class B,23.6,21.48,19.13,1,1,0.71,0.0102,1022.22,1,2.19,83,1.1
Dade County,Florida,Spring,25.4817,-80.5158,3/15/1972,Class B,78.18,64.12,58.33,0.66,0.36,0.01,0,1017.73,7,9.83,122,4.01
Pierce County,Washington,Fall,47.1772,-122.1852,10/11/1975,Class A,55.75,47.83,48.37,0.92,0.81,0.24,0,1015.51,2,6.89,38,0.67
Pierce County,Washington,Fall,47.2416,-122.1833,10/13/1975,Class A,54.61,46.49,48.51,0.89,0.96,0.3,0,1023.85,2,8.79,193,3.33
Pierce County,Washington,Spring,47.0945,-122.0874,4/30/1978,Class B,56.39,41.51,40.83,0.75,0.91,0.78,0,1014.23,5,9,282,0.56
Whatcom County,Washington,Summer,48.8178,-122.1656,8/27/1977,Class A,67.18,56.74,51.64,0.78,0.79,0.46,,1015.2,4,10,184,4.45
Clark County,Ohio,Summer,39.92104,-83.95184,9/15/1993,Class A,70.17,49.82,56.51,0.74,0.86,0.98,0.01,1018.01,5,7.8,333,3.78
Clark County,Ohio,Fall,39.85461,-83.94906,10/15/1998,Class A,64.64,47.43,41.33,0.73,0.26,0.85,0,1023.3,4,9.4,156,1.91
Clark County,Ohio,Fall,39.86096,-83.96562,10/15/2000,Class A,72.85,51.75,51.51,0.66,0.83,0.58,0.0015,1018.96,3,9.09,195,4.11
Clark County,Ohio,Fall,39.89216,-83.96123,11/24/2000,Class A,44.93,35.46,17.79,0.58,0.48,0.96,0,1024.33,2,10,85,5.82
Amherst County,Virginia,Fall,37.53434,-79.49707,11/1/1988,Class B,52.69,32.55,33.88,0.82,0.56,0.76,0.0189,1012.37,3,7.45,323,4.08
Autauga County,Alabama,Unknown,32.4456,-86.5653,8/15/1985,Class B,88.74,72.3,71.61,0.82,0.7,0.97,0.0041,1017.02,5,6.98,126,4.49
Kitsap County,Washington,Spring,47.4549,-122.2825,5/19/1973,Class A,59.1,43.72,42.68,0.7,0.87,0.58,0,1015.37,5,9.93,214,7.47
Midland County,Michigan,Fall,43.59611,-84.42722,9/15/1977,Class A,62.05,55,48.84,0.83,0.66,0.08,,1023.83,4,7.7,88,8.16
King County,Washington,Spring,47.1608,-121.6594,5/15/2000,Class B,63.22,49.34,41.9,0.57,0.52,0.42,0.0009,1013.23,7,9.79,222,3.51
Washington County,Oregon,Fall,45.48204,-122.9903,10/15/2000,Class A,57.19,49.79,43.69,0.88,0.61,0.58,0.0006,1019.22,2,6.17,98,0.43
Blount County,Alabama,Summer,34.1288,-86.68,8/25/1975,Class C,89.82,80.78,72.5,0.7,0.26,0.62,,1017.28,8,9.62,77,10.41
Broward County,Florida,Fall,26.28585,-80.17845,9/15/1994,Class B,87.11,80.97,75.82,0.83,0.86,0.36,0.01,1017.59,10,9.43,113,9.63
King County,Washington,Summer,47.41,-121.725,9/10/1994,Class B,61.27,48.7,50.78,0.88,0.8,0.18,0.0021,1016.94,4,9.9,220,2.76
Carter County,Kentucky,Winter,38.33885,-82.89059,1/15/1983,Class B,33.42,22.31,23.62,0.72,1,0.05,0.0059,1015.14,2,4.56,299,10.35
Stark County,Ohio,Winter,40.77789,-81.25768,2/24/2001,Class A,38.3,41.37,20.53,0.64,0.67,0.04,0.0007,1027.3,4,8.54,121,9.19
Cherokee County,Georgia,Winter,34.28745,-84.59345,11/3/1993,Class A,59.19,51.1,38.38,0.73,0.84,0.63,,1026.54,3,8,217,1.33
Cobb County,Georgia,Spring,34.0474,-84.68864,5/8/1999,Class B,79.25,54.39,51.35,0.64,0.21,0.75,,1015.36,10,9.03,284,5.7
Walla Walla County,Washington,Winter,46.0675,-118.0519,3/6/2000,Class B,35.45,25.54,28.46,0.97,0.93,0.02,0.0287,1008.06,3,6.68,175,8.77
Onslow County,North Carolina,Fall,34.6894,-77.2914,10/1/1965,Class A,79.78,71.48,68.9,0.79,0.9,0.22,,1016.4,4,5.89,201,9.4
Merrimack County,New Hampshire,Winter,43.28556,-71.46778,1/10/2001,Class B,21.08,8.6,1.84,0.55,0.12,0.53,0.0001,1011.39,2,10,313,9.19
Clackamas County,Oregon,Winter,44.97487,-122.3057,3/18/2001,Class B,48.06,30.06,43.63,1,0.96,0.81,0.0179,1018.59,3,9.79,190,10.97
Kittitas County,Washington,Summer,47.2842,-121.0777,10/16/2004,Class B,53.42,46.29,46.86,0.88,0.98,0.09,0.012,1002.24,2,1.99,261,1.57
Douglas County,Kansas,Fall,38.9142,-95.2577,1/26/2005,Class A,40.63,29.59,29.48,0.73,0.62,0.54,0,1022.05,2,10,357,6.92
Greene County,Missouri,Summer,37.07354,-93.13545,6/1/1988,Class A,82.76,55.75,61.15,0.74,0.86,0.54,0.0034,1014.87,5,8.12,148,4.84
Henderson County,North Carolina,Winter,35.36,-82.4831,12/19/2000,Class B,32.89,8.82,19.77,0.76,0.99,0.81,0.0052,1011.11,2,5.8,357,9.44
Chelan County,Washington,Winter,47.35305,-120.2955,10/17/2004,Class A,49.13,40.25,44.76,0.92,0.88,0.13,0.0157,993.41,2,9.35,321,0.76
Bartow County,Georgia,Spring,34.1226,-84.7038,5/20/1999,Class B,80.18,53.45,51.51,0.6,0.02,0.19,,1019.17,11,10,100,2.12
Bartow County,Georgia,Spring,34.1088,-84.6971,6/16/1999,Class B,80.41,66.03,68.96,0.93,0.98,0.11,0.0489,1013.88,5,4.31,49,2.3
Gwinnett County,Georgia,Spring,33.97005,-84.20175,4/30/1974,Class B,81.02,57.81,55.43,0.66,0.21,0.3,0,1020.08,7,8.32,271,5.84
Tillamook County,Oregon,Summer,45.75449,-123.866,9/13/1997,Class A,68.98,57.82,53.2,0.85,0.49,0.39,0.0061,1006.44,6,8.75,103,3.5
Miller County,Arkansas,Winter,33.31194,-93.8417,4/1/2001,Class B,71.32,59.25,41.71,0.57,0.11,0.27,0,1014.87,9,10,158,5.14
Victoria County,Texas,Summer,28.725,-97.06667,8/22/1997,Class B,98.34,76.15,73.22,0.71,0.06,0.66,0,1015.56,10,10,201,7.23
Lawrence County,Missouri,Summer,37.11433,-93.71506,9/1/1977,Class A,89.62,70.41,70.14,0.72,0.76,0.63,0,1019.95,6,10,190,4.84
Walla Walla County,Washington,Spring,46.03944,-118.0711,3/11/2001,Class A,46.7,34.63,32.97,0.83,0.17,0.58,,1020,4,10,194,11.24
Walla Walla County,Washington,Spring,46.0675,-118.0519,3/8/2001,Class A,43.55,27.54,38.73,0.98,0.84,0.47,0.0366,1018.97,3,8.86,187,9.41
Clark County,Wisconsin,Spring,44.6543,-90.0411,3/28/2000,Class A,42.72,28.48,25.75,0.68,1,0.77,0.0004,1004.14,4,9.99,341,14.28
Richmond County,Georgia,Winter,33.3646,-82.24471,12/1/1979,Class A,51.99,26.99,20.2,0.61,0.11,0.43,0,1024.26,3,10,230,4.73
Stewart County,Georgia,Summer,32.0538,-85.0409,8/30/2000,Class A,89.7,71.7,66.55,0.69,0.4,0.05,,1013.53,8,6.92,38,4.52
Modoc County,California,Spring,41.48722,-120.5414,3/30/2001,Class B,60.82,24.84,29.19,0.62,0.01,0.19,,1019.94,7,9.69,330,2.52
Middlesex County,New Jersey,Fall,40.478,-74.4611,12/11/2005,Class A,38.56,26.91,22.96,0.77,0.41,0.37,0.0005,1003.75,2,7.05,246,1.75
Fairfax County,Virginia,Summer,38.80319,-77.34879,8/15/1995,Class B,89.88,71.63,71.87,0.74,0.35,0.67,0,1014.65,8,7.2,123,3.37
Giles County,Virginia,Spring,37.29854,-80.82856,3/29/1997,Class A,65.95,44.42,46.08,0.68,0.38,0.68,,1008.55,7,9.61,268,8.84
Montgomery County,Virginia,Summer,37.02759,-80.38748,5/30/1998,Class A,85.22,62.1,64.41,0.79,0.09,0.17,0,1015.22,11,6.94,201,0.97
Wythe County,Virginia,Spring,37.22647,-81.09017,4/8/1984,Class A,59.76,41.76,28.22,0.48,0.76,0.24,,1020.84,5,8.75,107,4.81
Surry County,Virginia,Summer,37.1694,-76.77447,7/24/1998,Class B,87.83,72.74,69.55,0.71,0.8,0.04,,1014.96,6,6.49,74,1.3
Pierce County,Washington,Spring,46.9382,-122.382,4/25/2001,Class A,73.04,46.66,51.24,0.76,0.57,0.07,0,1018.49,7,7.77,19,4.18
Placer County,California,Fall,39.02028,-120.8169,9/7/1998,Class B,80.21,69.42,49.45,0.4,0.15,0.55,0,1009.68,8,10,200,1.4
Guernsey County,Ohio,Summer,39.95329,-81.39827,8/1/1999,Class B,87.63,62.4,63.93,0.66,0.88,0.64,,1012.33,6,8.22,332,4.78
Utah County,Utah,Spring,40.3857,-111.6992,5/4/1996,Class A,53.01,33.01,31.48,0.57,0.04,0.54,0,1015.44,10,10,318,11.1
Cleveland County,Oklahoma,Fall,35.21111,-97.24139,9/1/1995,Class B,97.72,72.06,62.72,0.49,0.07,0.23,0,1015.44,8,10,250,1.4
Ballard County,Kentucky,Winter,36.9372,-88.9949,1/20/1993,Class A,50.16,48.19,41.82,0.84,1,0.94,0.0197,1023.15,2,5.13,119,12.09
Bell County,Kentucky,Unknown,36.7999,-83.66641,12/31/1958,Class A,50.49,43.46,37.32,0.89,1,0.69,,1023.3,2,3.33,102,7.77
Jackson County,Mississippi,Fall,30.38345,-88.72985,9/8/2001,Class B,84.31,72.38,74.25,0.87,0.41,0.68,0.185,1013.34,5,8.75,100,0.76
Clark County,Kentucky,Summer,37.89508,-84.1989,8/1/1976,Class A,77.65,59.66,60.04,0.69,0.45,0.2,0,1014.33,8,9.12,9,8.02
Jefferson County,Kentucky,Summer,38.14415,-85.89175,8/1/1971,Class B,82.55,65.11,46.59,0.47,0.68,0.32,0,1021.53,7,7.12,178,3.31
Lawrence County,Kentucky,Summer,38.16205,-82.643,8/1/1995,Class B,94.59,67.56,69.48,0.68,0.31,0.16,0,1018.24,10,7.54,238,3.62
Perry County,Kentucky,Summer,37.2731,-83.49205,7/1/1986,Class B,84.41,69.49,71.09,0.86,1,0.83,0.0254,1013.42,5,4.96,198,4.8
Perry County,Ohio,Summer,39.78594,-82.29162,6/1/1978,Class A,86.68,63.63,60.04,0.7,0.37,0.87,,1015.74,8,7.35,189,3.33
Lonoke County,Arkansas,Fall,34.787,-91.735,8/11/2001,Class A,90.74,75.09,74.42,0.84,0.81,0.73,0.0269,1015.81,7,6.73,216,4.24
Pottawattamie County,Iowa,Winter,41.48453,-96.01464,12/12/1999,Class B,50.79,20.28,25.38,0.71,0.05,0.15,0,1017.4,2,8.7,284,2.56
Shasta County,California,Summer,40.4925,-121.8881,8/1/1991,Class B,87.32,51.95,49.72,0.52,0.06,0.69,0,1013.81,10,10,154,4.33
Alachua County,Florida,Fall,29.77535,-82.3657,9/29/1985,Class A,84.05,70.02,68.21,0.84,0.35,0.52,,1021.47,5,6.25,53,7.31
Walker County,Georgia,Summer,34.66005,-85.4034,8/4/1998,Class B,83.25,62.45,62.6,0.77,0.06,0.38,0,1020.06,10,8.4,114,0.24
Marion County,Oregon,Summer,44.8633,-122.6397,7/15/1976,Class A,86.78,48.79,53.79,0.66,0,0.64,0,1014.06,10,10,345,2.15
Benton County,Arkansas,Fall,36.25639,-94.07806,11/27/2000,Class B,53.53,28.67,28.59,0.67,0,0.06,,1018.49,3,10,269,1.38
Flagler County,Florida,Summer,29.47035,-81.1273,8/15/1974,Class A,87.23,75.15,71.77,0.76,0.3,0.92,0,1020.65,9,6.96,119,4.46
Jackson County,Oregon,Fall,42.08845,-122.7465,9/23/1995,Class B,73.28,45.37,40.85,0.64,0.11,0.96,0,1013.06,6,10,327,1.76
Columbiana County,Ohio,Summer,40.70386,-80.58332,6/15/1982,Class A,80.96,65.86,52.7,0.56,0.53,0.78,0,1012.67,6,9.62,204,8.5
Clark County,Washington,Winter,45.7811,-122.5322,1/15/1984,Class A,40.68,21.99,17.57,0.52,0,0.4,0,1028.19,1,10,90,13.77
Somerset County,New Jersey,Summer,40.7446,-74.6215,4/23/2004,Class A,58.57,45.63,50.05,0.82,0.9,0.13,0.0026,1018.26,4,9.77,50,3.45
Mason County,Washington,Summer,47.2641,-123.1583,7/3/2001,Class B,85.13,53.48,49.57,0.56,0.06,0.44,0,1018.1,9,10,28,2.96
Greene County,Arkansas,Winter,36.12083,-90.51056,1/10/1988,Class A,26.98,3.05,7.78,0.73,0.16,0.7,,1032.93,3,9.08,55,3.06
San Diego County,California,Winter,32.71528,-117.1564,2/15/1981,Class C,77.09,55.08,50.68,0.66,0.59,0.4,0,1016.98,4,7.57,301,3.05
Cabell County,West Virginia,Summer,38.46118,-82.07358,6/15/2001,Class B,89.4,69.41,71.63,0.81,0.29,0.8,0.0043,1013.79,9,6.82,209,2.82
Marquette County,Michigan,Summer,46.61183,-87.73236,8/1/1991,Class A,77.72,52.47,47.97,0.54,0.25,0.69,0,1012.82,8,9.83,276,8.71
Payne County,Oklahoma,Winter,36.02306,-97.1225,12/30/1997,Class A,55.67,21.47,28.5,0.66,0.24,0.03,,1016.92,2,10,290,8.46
Latimer County,Oklahoma,Summer,35.00278,-95.34111,7/15/1977,Class B,95.31,71.18,70.88,0.7,0.53,0.97,,1018.84,6,7.67,132,2.05
Marinette County,Wisconsin,Winter,45.43522,-88.12464,2/18/1999,Class B,20.13,2.12,7.57,0.73,1,0.09,,1019.86,2,9.3,336,4.07
Curry County,Oregon,Winter,42.07,-124.3,3/17/2001,Class A,51.04,48.78,45.78,0.95,1,0.78,,1021.95,3,,173,7.16
Volusia County,Florida,Summer,28.98195,-80.86715,11/7/2004,Class B,75.82,50.2,53.4,0.68,0.02,0.83,0,1017.65,5,9.96,345,3.06
Stark County,Ohio,Winter,40.74065,-81.35575,2/15/1995,Class A,42.38,32.34,27.43,0.78,1,0.49,0.0133,1014.44,3,5.52,168,9.42
Curry County,Oregon,Spring,42.08,-124.3,6/4/2001,Class A,55.52,48.67,46.01,0.91,0.37,0.46,,1015.36,9,,328,1.22
Defiance County,Ohio,Spring,41.2625,-84.38103,5/24/1998,Class A,69.89,55.49,52.28,0.77,0.7,0.96,0.0527,1012.67,8,8.68,84,6.24
Cleveland County,Arkansas,Summer,33.82111,-92.03389,7/29/2001,Class A,92.95,77.64,75.23,0.78,0.15,0.33,,1016.53,10,10,221,7.09
Washtenaw County,Michigan,Summer,42.30472,-83.60472,8/7/2001,Class A,94.51,71.84,71.31,0.69,0.18,0.6,0.0009,1017.55,8,9.73,268,7.89
Park County,Montana,Summer,45.66722,-110.8069,8/22/2001,Class A,85.19,57.33,38.31,0.38,0.07,0.14,0,1010.28,8,9.66,126,2.09
Lincoln County,Wisconsin,Unknown,45.22849,-89.67523,8/12/1979,Class A,70.46,57.36,52.31,0.77,0.68,0.67,,1014.85,5,9.79,204,7.4
Washtenaw County,Michigan,Winter,42.285,-83.59014,2/15/2001,Class B,32.14,28.61,24.01,0.8,0.9,0.76,0,1018.55,3,9.81,57,4.1
Morgan County,Alabama,Summer,34.4881,-86.6333,6/1/2000,Class A,87.05,61.32,59.18,0.62,0.05,0.97,0,1021.06,10,9.45,151,3.79
Carroll County,Arkansas,Summer,36.34389,-93.76,6/15/2001,Class B,80.79,58.45,60.29,0.73,0.38,0.8,,1015.94,11,8.81,279,3.6
La Crosse County,Wisconsin,Unknown,43.98694,-91.33662,9/10/1975,Class C,84.96,60.11,61.18,0.78,0.68,0.18,,1015.36,5,7.5,177,10.24
Polk County,Oregon,Summer,45.07072,-123.6664,9/1/2001,Class B,73.53,46.54,54.61,0.71,0.74,0.46,,1014.73,4,,229,4.39
Tuscarawas County,Ohio,Unknown,40.27488,-81.51749,5/1/1997,Class A,53.32,31.75,42.81,0.7,0.85,0.81,,1004.39,4,10,284,14.21
Montezuma County,Colorado,Summer,37.4625,-108.2083,9/8/2001,Class A,60.31,24.33,22.22,0.45,0.01,0.68,,1012.65,9,10,354,8.15
Franklin County,Iowa,Fall,42.73854,-93.22192,9/1/2001,Class A,76.86,59.35,54.64,0.76,0.01,0.46,0,1016.97,7,9.23,154,7.31
Park County,Colorado,Fall,39.20834,-106.0417,9/30/2001,Class B,59.79,33.41,28.27,0.58,0.38,0.44,0,1023.01,5,10,139,2.35
Saline County,Arkansas,Spring,34.52473,-92.70348,4/4/1975,Class B,63.93,38.31,29.94,0.55,0.2,0.78,0,1026.11,8,9.97,136,4.19
Washington County,Ohio,Summer,39.40877,-81.73172,7/4/1978,Class A,77.04,66.07,62.68,0.76,1,0.97,,1014.07,5,3.92,350,5.64
Lane County,Oregon,Summer,44.09462,-123.3724,8/12/1983,Class B,83.35,52.39,54.66,0.7,0.21,0.15,0,1019.41,8,9.83,357,11.69
Washington County,Oregon,Fall,45.76569,-123.3601,10/14/2001,Class B,59.32,34.32,49.26,0.92,0.73,0.93,,1020.81,3,9.36,212,0.33
McCurtain County,Oklahoma,Fall,34.45195,-94.60042,10/19/2001,Class B,71.56,56.43,54.18,0.88,0.59,0.11,,1015.96,4,9.75,98,1.18
Geauga County,Ohio,Spring,41.39803,-81.33974,10/26/2001,Class A,40.08,37.86,32.37,0.75,1,0.33,0.0075,1012.37,2,8.4,260,23.94
Boyd County,Kentucky,Summer,38.42968,-82.64877,8/15/1998,Class A,81.26,69.4,63.46,0.75,0.67,0.78,0.0005,1013.02,7,2.68,103,0.86
Burke County,North Carolina,Fall,35.83845,-81.80479,10/20/2001,Class B,73.44,44.1,42.79,0.65,0,0.14,,1019.34,5,9.05,269,0.1
Thurston County,Washington,Spring,46.96515,-122.69,10/10/2004,Class A,62.1,45.5,49.64,0.86,0.64,0.88,0,1024.62,3,8.49,193,1.36
Morrow County,Ohio,Winter,40.4764,-82.80257,1/1/1978,Class A,35.6,13.67,24.44,0.79,0.94,0.73,0.0079,1008.61,1,3.21,239,8.69
Limestone County,Alabama,Fall,34.6802,-87.00665,10/15/2001,Class A,73.38,45.94,47.95,0.71,0,0.96,0,1020.64,6,10,125,3.17
Coos County,Oregon,Fall,43.54165,-123.875,11/14/1995,Class A,56.43,49.79,50.11,1,0.78,0.73,,1015.89,2,4.66,207,2.97
Geauga County,Ohio,Summer,41.47349,-81.3726,8/15/1980,Class A,75.4,58.59,63.7,0.77,0.91,0.15,0.0026,1015.11,5,9,359,6.63
Caldwell County,North Carolina,Fall,35.94585,-81.7418,9/9/1998,Class B,70.98,47.58,42.42,0.53,0,0.62,,1015.05,8,9.96,2,4.93
Henderson County,North Carolina,Spring,35.33975,-82.443,4/15/1983,Class A,57.79,34.94,45.76,0.82,0.59,0.08,0.0098,1012.04,6,8.08,346,10.6
Onslow County,North Carolina,Summer,34.7576,-77.5873,7/15/1987,Class B,79.41,69.82,70.19,0.84,0.79,0.67,,1013.31,6,5.68,80,4.1
Pender County,North Carolina,Spring,34.3924,-77.7485,3/31/1998,Class B,79.89,67.69,62.1,0.75,0.36,0.14,0.0005,1018.2,7,9.53,182,10.51
Yancey County,North Carolina,Spring,35.74875,-82.26195,3/15/1988,Class B,22.21,13.2,9.5,0.79,0.46,0.91,0,1014.47,7,9.5,348,16.94
Allen County,Ohio,Fall,40.65572,-83.93892,11/1/1999,Class B,73.11,40.72,51.09,0.73,0.08,0.79,,1017.69,3,7.17,181,6.53
Allen County,Ohio,Winter,40.73412,-84.06565,3/15/1987,Class A,35.69,27.95,25.23,0.74,0.97,0.5,,1022.88,4,6.96,59,16.29
Ashland County,Ohio,Fall,40.82327,-82.32803,9/15/1991,Class A,90.27,76.21,57.31,0.51,0.46,0.24,0,1017.59,6,6.83,221,9.95
Holmes County,Ohio,Summer,40.59935,-82.23988,7/3/1997,Class A,76.54,60.51,61.02,0.72,0.36,0.96,0,1006.01,7,9.86,262,10.84
Keweenaw County,Michigan,Fall,47.232,-88.16361,11/15/2001,Class B,60.06,37,47.63,0.75,0.3,0.02,,1010.52,1,,281,11.22
Nacogdoches County,Texas,Fall,31.33333,-94.33334,10/15/2003,Class B,75.84,52.21,48.04,0.67,0,0.66,0,1019.45,6,10,137,1.37
Pierce County,Washington,Winter,46.766,-122.1652,1/1/1992,Class A,41.05,37.42,35.47,0.99,0.95,0.9,,1017.45,1,6.77,168,2.7
Nevada County,California,Spring,39.21278,-120.8908,6/1/1978,Class A,73.41,57.45,34.67,0.34,0.07,0.87,,1005.96,9,8.05,220,1.29
Nevada County,California,Summer,39.30056,-120.6672,8/1/1984,Class B,77.15,56.72,39.7,0.35,0.04,0.16,,1008.39,10,7.73,194,4.39
Clackamas County,Oregon,Winter,45.33175,-121.9139,11/29/2001,Class A,42.59,36.56,39.67,0.96,0.95,0.46,0.0216,1003.57,1,8.85,221,7.41
Storey County,Nevada,Summer,39.29056,-119.6564,9/15/1980,Class A,73.96,36.31,33.98,0.5,0.59,0.19,0,1014.81,6,10,93,1.33
Madison County,Illinois,Summer,38.809,-89.918,6/6/1973,Class C,79.19,59.11,57.92,0.69,0.23,0.2,0,1016.87,10,9.5,282,6.07
Johnson County,Illinois,Fall,37.34339,-88.71672,10/15/1989,Class A,84.26,62.31,57.56,0.71,0.28,0.53,0,1015.45,4,7.5,178,6.61
Coconino County,Arizona,Winter,34.90831,-110.8403,12/24/2000,Class A,56.54,30.64,13.22,0.46,0,0.97,0,1018.93,3,10,174,2.25
Cooper County,Missouri,Fall,38.81124,-92.59781,10/15/1975,Class A,62.09,39.72,49.65,0.75,0.84,0.36,0.0108,1017.49,4,9.75,284,7.06
El Paso County,Colorado,Winter,38.6691,-104.8604,12/15/1999,Class A,44.58,23.24,3.78,0.35,0.4,0.25,0,1024.03,2,9.35,329,3.67
Hancock County,Illinois,Fall,40.4664,-91.0007,11/15/2000,Class A,48.64,34.03,24.2,0.64,0.31,0.64,0,1014.85,3,10,186,8.57
Athens County,Ohio,Fall,39.47642,-82.24155,11/19/1998,Class B,59.03,39.25,44.3,0.73,0.55,0.02,,1016.75,2,8.29,206,8.04
Coshocton County,Ohio,Spring,40.25597,-82.1334,4/15/2001,Class B,53.21,38.58,45.55,0.86,0.71,0.75,0.0517,1008.17,5,7.22,14,4.49
Cabell County,West Virginia,Fall,38.5464,-82.25949,11/15/1960,Class B,75.98,56.01,40.7,0.6,0.5,0.88,,1019.31,2,,220,7.28
Snohomish County,Washington,Summer,47.85556,-121.9697,8/1/2001,Class B,68.08,60.44,51.83,0.72,0.59,0.43,,1017.38,5,10,173,2.99
Teller County,Colorado,Winter,38.71145,-105.0354,11/5/2001,Class B,60.52,33.8,24.56,0.54,0.26,0.65,0,1021.82,3,9.23,4,2.06
Coshocton County,Ohio,Spring,40.2287,-81.96845,3/15/1998,Class B,38.84,24.44,20.22,0.68,0.74,0.58,,1028.79,4,10,330,6.45
Lake County,Colorado,Summer,39.225,-106.3625,7/30/2001,Class B,74.59,49.41,35.98,0.44,0.31,0.36,0.0001,1009.48,9,10,178,2.43
Placer County,California,Spring,38.90222,-121.0803,4/1/1978,Class B,56.08,39.63,47.43,0.88,0.97,0.79,,1010.38,5,9.44,182,9.83
Jefferson County,Washington,Summer,48.09725,-122.8241,10/10/2004,Class B,59.76,51.64,51.61,0.89,0.89,0.88,0.0001,1024.21,3,9.96,148,2.4
Okanogan County,Washington,Fall,48.40611,-118.9844,10/12/2001,Class B,50.06,21.24,35,0.84,0.54,0.85,0.0008,1016.15,2,10,163,4.98
Multnomah County,Oregon,Winter,45.55364,-122.1884,1/9/2002,Class A,49.8,38.07,41.18,0.89,0.64,0.88,0.0002,1024.96,1,5.57,26,0.67
Polk County,Oregon,Fall,44.86875,-123.4462,10/15/2000,Class B,58.9,48.65,42.81,0.87,0.48,0.58,0.0005,1019,3,8.87,197,0.96
Portage County,Ohio,Unknown,41.30265,-81.30896,6/6/1962,Class A,72.79,49.86,56.12,0.76,0.51,0.14,0,1014.94,9,6.64,24,7.2
Summit County,Colorado,Fall,39.32385,-106.2275,9/19/1998,Class A,61.25,30.63,23.57,0.4,0.03,0.97,,1004.8,8,10,347,6.7
Pitkin County,Colorado,Spring,39.3375,-107.0671,2/20/2001,Class A,46.26,29.54,16.48,0.51,0.29,0.92,,1017.41,4,10,233,2.96
Ritchie County,West Virginia,Fall,39.21833,-81.16211,11/12/2001,Class A,51.89,25.97,28.5,0.76,0,0.91,,1033.72,3,9.5,22,0.88
Polk County,Missouri,Summer,37.54661,-93.41,7/20/2001,Class B,92.36,73.5,71.98,0.74,0.03,0.99,0,1015.07,10,,180,3.18
Stevens County,Washington,Fall,47.981,-117.6454,10/17/2004,Class B,46.77,39,44.7,0.99,0.97,0.13,0.0269,995.62,2,8.23,50,2.07
Shasta County,California,Unknown,40.58667,-122.3906,1/1/1992,Class B,56.72,28.85,34.85,0.83,0.43,0.9,0,1022.74,1,10,352,2.86
Gallia County,Ohio,Summer,38.79833,-82.54968,5/25/1998,Class A,76.05,60.24,64.14,0.83,0.32,0.99,0.0005,1013.04,10,6.87,248,4.89
Josephine County,Oregon,Summer,42.375,-123.3833,7/1/1975,Class A,65.82,45.84,44.71,0.64,0.85,0.75,0.0022,1019,5,8.69,305,3.09
El Paso County,Colorado,Summer,38.9006,-104.9917,6/30/2001,Class A,81.39,53.3,47.98,0.56,0.56,0.34,0.0033,1013.91,7,10,150,5.88
Yakima County,Washington,Fall,46.621,-121.0638,10/29/2001,Class B,37.97,28.96,28.9,0.96,0.95,0.42,0.0001,1022.39,2,9.85,230,1.92
Clatsop County,Oregon,Summer,45.99378,-123.9211,8/3/2001,Class B,64.03,57.02,57.82,0.91,0.97,0.49,0.0038,1013.68,5,8.48,197,9.47
Gallia County,Ohio,Summer,38.79381,-82.55177,9/3/1998,Class A,86.09,59.09,56.34,0.65,0.15,0.4,0,1009.31,7,7.61,9,1.95
Rapides Parish,Louisiana,Summer,31.4676,-92.2508,8/22/2000,Class A,97.99,69.52,72.46,0.78,0.15,0.75,,1019.68,9,7.68,143,2.23
Josephine County,Oregon,Fall,42.56805,-123.3322,10/1/1978,Class B,66.68,51.77,43.62,0.58,0.14,0.98,0,1022.67,5,8.14,352,5.67
El Dorado County,California,Summer,38.9575,-120.0914,8/1/2001,Class B,79.67,38.1,39.14,0.52,0.11,0.43,,1019.41,11,10,200,2.93
Pendleton County,West Virginia,Summer,38.90203,-79.33517,7/1/1999,Class B,84.37,69.45,64.33,0.79,0.2,0.58,0.0027,1015.98,10,5.68,184,4.93
Washington County,Ohio,Summer,39.46019,-81.54855,7/4/1984,Class A,79.83,71.74,63.32,0.68,0.9,0.2,,1012.8,5,5.3,202,7.41
Roanoke County,Virginia,Spring,37.2423,-80.13276,4/4/2002,Class A,55.23,29.74,21.98,0.43,0.22,0.75,0,1024.63,8,10,347,4.73
Oklahoma County,Oklahoma,Winter,35.64389,-97.45694,1/15/1982,Class A,60.3,8.44,22.95,0.51,0.13,0.71,0,1008.5,3,10,305,3.1
Miller County,Arkansas,Winter,33.26666,-93.886,1/15/2000,Class A,64.33,56.24,37.48,0.61,0.07,0.3,0,1030.52,3,10,186,8.09
Saline County,Arkansas,Fall,34.56444,-92.58667,10/15/1994,Class A,67.65,62.35,59.75,0.9,0.98,0.38,,1016.11,4,5.57,121,6.95
Saline County,Arkansas,Fall,34.47,-92.58,9/20/1975,Class B,78.23,55.02,54.66,0.7,0.2,0.49,0,1019.17,8,9.95,328,5.51
Union County,Arkansas,Unknown,33.1075,-92.33472,1/1/1980,Class C,57.56,28.77,29.58,0.69,0.02,0.48,,1020.57,3,10,286,2.79
Tattnall County,Georgia,Winter,31.9621,-81.88995,6/15/1995,Class B,82.61,57.49,53.96,0.73,0.62,0.6,,1014.76,8,7,138,1.03
Payne County,Oklahoma,Winter,35.97389,-97.03333,11/15/1997,Class A,37.77,18.34,18.32,0.61,0.04,0.55,,1027.34,3,10,290,8.73
Lampasas County,Texas,Summer,31.11611,-98.055,8/15/1977,Class A,95.77,73.62,70.79,0.66,0.56,0.02,,1015.46,9,9.92,164,7.22
Montgomery County,Texas,Summer,30.23333,-95.60834,7/15/1983,Class A,80.62,72.73,72.62,0.93,0.98,0.19,0.0426,1014.02,5,5.06,79,6.51
Pecos County,Texas,Winter,31.27278,-102.6922,2/15/2000,Class A,88.07,53.86,30.05,0.24,0,0.36,,1012.55,6,10,243,8.18
Trinity County,Texas,Fall,31.22333,-94.96611,11/15/1995,Class C,74.81,44.03,44.26,0.72,0,0.76,,1020.63,4,10,249,3.46
Ashtabula County,Ohio,Spring,41.72735,-80.54558,5/30/1999,Class B,83.65,57.32,53.22,0.58,0,0.52,0,1022.24,10,10,206,1.46
Walker County,Texas,Summer,30.52361,-95.58334,9/11/2001,Class A,86.24,63.7,64.3,0.71,0,0.79,,1019.74,9,9.67,5,1.27
Raleigh County,West Virginia,Summer,37.80531,-81.14714,7/4/1975,Class B,71.21,58.26,60.87,0.82,0.81,0.84,0.0501,1013.8,6,5.57,303,1.54
Erie County,Ohio,Fall,41.42364,-82.82491,10/29/2000,Class B,51.7,48.83,,,,0.08,,1029.21,0,,7,12.64
Cowlitz County,Washington,Spring,46.3261,-122.4988,5/9/2002,Class A,53.67,37.34,35.97,0.75,0.56,0.91,,1021.83,5,10,271,1.96
Columbiana County,Ohio,Summer,40.76533,-80.55217,6/1/1980,Class A,77.86,64.9,61.14,0.82,0.58,0.59,0.0034,1014.24,7,4.6,188,4.93
Columbiana County,Ohio,Summer,40.6807,-80.57164,6/30/1971,Class A,89.37,70.27,62.96,0.58,0.67,0.25,0,1017.12,6,8.16,215,7.67
Coshocton County,Ohio,Spring,40.35097,-81.99847,5/19/1988,Class B,59.87,55.73,53.41,0.92,1,0.13,,1012.32,5,2.17,277,2.55
Isabella County,Michigan,Fall,43.5975,-84.66833,10/20/1990,Class A,58.67,43.73,31.64,0.66,0.26,0.07,,1020.65,3,9.87,167,13.37
King County,Washington,Summer,47.6068,-121.9008,6/15/1999,Class A,67.83,55.1,54.49,0.8,0.68,0.08,0.0011,1013.3,7,9.97,203,6.68
Cowlitz County,Washington,Summer,46.1911,-123.1875,7/1/1952,Class A,68.58,42.64,48.69,0.71,0.74,0.29,,1026.06,5,10,319,3.63
Cowlitz County,Washington,Spring,46.3758,-122.5855,5/18/2002,Class A,66.16,45.42,42.63,0.67,0.36,0.22,,1011.93,8,10,321,1.46
Fillmore County,Minnesota,Spring,43.80075,-92.36145,5/19/2002,Class A,56.15,32.93,25.13,0.43,0.22,0.25,0,1026.02,10,6.51,349,8.25
Brooks County,Georgia,Winter,30.67,-83.412,6/10/2002,Class A,88.2,68.83,66.92,0.75,0.45,0.99,,1017.56,6,9.05,64,6.97
King County,Washington,Summer,47.40667,-122.0375,7/31/1975,Class B,72.84,54.17,50.06,0.67,0.24,0.76,0,1025.99,8,9.39,218,2.72
Kalamazoo County,Michigan,Spring,42.39472,-85.60028,5/26/2002,Class A,70.1,46.18,42.75,0.74,0.17,0.51,,1020.49,10,9.27,200,4.41
San Diego County,California,Summer,33.2675,-116.8625,7/4/1993,Class A,66.64,57.16,52.02,0.74,0.68,0.53,,1009.12,10,9.83,197,4.29
Pierce County,Washington,Summer,47.0183,-121.5344,8/15/1982,Class A,63.28,48.34,43,0.68,0.18,0.88,0,1018.88,6,8.67,229,8.08
Hancock County,Ohio,Summer,41.14896,-83.43667,6/1/1994,Class B,72.95,43.07,44.12,0.51,0.29,0.76,,1014.47,9,9.7,298,9.54
Clackamas County,Oregon,Summer,45.3894,-122.4163,8/29/1978,Class A,85.38,61.8,60.25,0.7,0.56,0.88,0,1015.17,6,9.58,308,5.91
Josephine County,Oregon,Summer,42.39031,-123.449,6/8/2002,Class A,57.12,44.16,32.96,0.52,0.86,0.93,0,1021.02,5,10,349,5.4
Stark County,Ohio,Summer,40.67979,-81.51075,7/1/1978,Class A,71.86,60.88,54.02,0.64,0.96,0.88,0,1017.12,5,9.22,85,7.42
Greene County,Ohio,Summer,39.74961,-84.09158,6/1/2002,Class A,82.57,63.59,66.05,0.78,0.47,0.71,0.0026,1008.93,8,6.92,235,6.91
Montcalm County,Michigan,Summer,43.235,-85.34194,6/12/2002,Class A,76.82,60.63,62.79,0.83,0.78,0.05,0,1010.39,6,6.48,285,7.9
East Feliciana Parish,Louisiana,Winter,30.96745,-91.0955,1/28/2001,Class B,69.22,61.31,57.34,0.88,0.94,0.13,0,1021.08,3,7.16,112,11.41
Coshocton County,Ohio,Spring,40.3244,-81.99955,5/7/2000,Class B,85.93,62.52,58.43,0.64,0.47,0.13,,1016.06,7,7.17,234,5.46
Franklin County,Ohio,Summer,39.89203,-83.00142,6/1/1997,Class A,74.07,64.11,64.09,0.92,0.94,0.87,0.0436,1005.83,5,6.92,75,7.15
Guernsey County,Ohio,Fall,40.17699,-81.63656,10/15/1998,Class A,63.88,39.25,42.29,0.74,0.49,0.85,,1023.74,3,9.01,168,5.53
King County,Washington,Summer,47.6181,-121.3114,8/14/1977,Class A,81.11,62.04,47.43,0.45,0.1,0.99,0,1009.08,7,8.17,236,9.14
Roscommon County,Michigan,Summer,44.4355,-84.7602,8/12/1980,Class A,69.93,46.89,57.35,0.81,0.63,0.06,0,1015.28,4,9.5,317,7.84
Huerfano County,Colorado,Spring,37.5969,-105.4826,5/15/1994,Class A,61.09,30.14,33.76,0.73,0.27,0.16,0,1014.97,11,10,218,6.76
Siskiyou County,California,Summer,41.21361,-122.2703,6/15/2001,Class A,85.07,49.06,45.26,0.44,0.01,0.8,0,1017.13,11,10,19,0.99
Shasta County,California,Summer,40.53806,-121.7314,6/26/2002,Class B,89.64,56.9,46.14,0.39,0.08,0.57,0,1010.34,9,10,212,2.25
Marion County,Oregon,Summer,44.79307,-122.5674,7/10/2002,Class B,93.05,55.4,57.71,0.61,0,0.01,0,1014.42,10,10,314,1.38
Butler County,Ohio,Summer,39.37509,-84.79429,7/14/2002,Class A,83,61.92,63.67,0.77,0.4,0.15,0,1015.28,9,6.56,28,1.52
Butler County,Ohio,Summer,39.37215,-84.80138,6/6/2001,Class A,78.88,62.27,66.69,0.92,0.85,0.52,0.0325,1015.58,5,7.73,210,2.71
Johnston County,North Carolina,Summer,35.5311,-78.4048,7/14/2002,Class A,85.03,72.95,71.11,0.82,0.86,0.15,0.1727,1013.69,6,7.1,71,0.87
Lauderdale County,Mississippi,Summer,32.2714,-88.7496,8/14/1975,Class A,91.23,74.98,72.99,0.76,0.2,0.27,0,1018.17,8,4.86,161,0.85
Lewis County,Washington,Spring,46.6622,-122.9627,5/13/2001,Class A,67.37,47.75,46.6,0.74,0.86,0.7,0.0005,1015.77,5,9.56,206,4.45
Skamania County,Washington,Summer,45.8083,-121.9063,8/3/2002,Class A,74.24,51.67,44.48,0.55,0.3,0.82,,1015.45,9,10,272,2.64
Conecuh County,Alabama,Winter,31.16,-87.09069,2/10/2000,Class A,71.83,53.94,41.93,0.72,0.14,0.17,,1017.85,5,7.89,206,6.13
Hardin County,Ohio,Summer,40.6445,-83.6118,7/18/2002,Class A,87.88,71,70.76,0.78,0.1,0.3,,1014.41,9,3.82,249,4.98
Geauga County,Ohio,Summer,41.5325,-81.1351,8/4/2002,Class A,88.6,73.06,65.72,0.7,0.42,0.85,0.0002,1020.98,6,7.29,248,2.62
George County,Mississippi,Fall,30.97675,-89.0338,1/13/2005,Class A,71.59,43.57,59.55,0.92,,0.12,0.0276,1012.3,0,,175,3.09
Chesapeake City County,Virginia,Summer,36.5884,-76.28729,7/21/2000,Class B,81.65,66.43,68.77,0.82,0.71,0.66,0,1013.49,8,8.56,200,3.25
Ashtabula County,Ohio,Winter,41.81902,-80.58163,11/1/1976,Class A,42.36,29.39,24.67,0.62,0.34,0.34,0,1024.72,3,9.42,344,3.7
Benton County,Oregon,Summer,44.58335,-123.4166,8/24/2002,Class A,84.14,54.95,53.78,0.72,0.02,0.56,0,1017.15,8,10,325,1.54
King County,Washington,Spring,47.288,-121.9658,4/1/1992,Class A,68.66,46.32,45.24,0.69,0.14,0.95,0,1021.18,5,9.66,353,5.15
Nevada County,California,Summer,39.26167,-121.015,8/1/2002,Class B,90.74,62.51,50.31,0.43,0.02,0.76,0,1012.06,10,9.29,207,0.96
Mendocino County,California,Summer,39.44583,-123.8042,7/1/1985,Class B,57.46,51.71,,,,0.48,,1019.64,0,,338,5.14
Park County,Colorado,Summer,39.3045,-106.171,8/31/2002,Class B,62.95,34.53,25.88,0.45,0.44,0.77,,1018.23,9,10,298,2.18
Butte County,California,Summer,39.64306,-121.2733,9/7/2002,Class B,75.18,45.21,33.9,0.39,0,0.03,,1013.22,8,10,209,0.2
Nevada County,California,Fall,39.3225,-120.2653,10/1/1956,Class A,70.69,45.51,34.77,0.48,0.07,0.91,0,1014.16,6,10,228,2.36
Harrison County,Ohio,Spring,40.33345,-81.26559,5/30/1998,Class B,81.65,68.7,65.34,0.86,0.22,0.17,,1015.66,10,5.15,175,1.96
Jefferson County,Ohio,Fall,40.39103,-80.6937,9/30/1997,Class A,63.05,52.31,48.74,0.65,0.76,0.97,0.0039,1002.11,4,10,261,10.75
Licking County,Ohio,Summer,40.00915,-82.67252,8/1/1968,Class A,77.91,60.77,66.17,0.81,0.97,0.25,0.1413,1016.45,5,6.98,279,1.94
Lorain County,Ohio,Fall,41.27939,-82.21939,10/15/1987,Class B,65.41,46.83,38.78,0.62,0.37,0.78,0,1024.98,4,10,185,2.09
Medina County,Ohio,Fall,41.09302,-81.82391,9/30/1978,Class B,77.73,54.87,54.5,0.78,0.51,0.94,0.0432,1016.68,5,5.03,188,9.3
Portage County,Ohio,Summer,41.31405,-81.38112,8/1/1976,Class B,71.55,53.17,54.72,0.69,0.37,0.2,0,1015.39,8,10,359,9.16
Portage County,Ohio,Spring,41.17646,-81.32425,4/15/1997,Class B,56.48,41.34,27.1,0.48,0.45,0.28,0,1025.09,6,10,203,1.66
Portage County,Ohio,Summer,41.06499,-81.3741,7/31/1983,Class B,82.39,68.36,68.27,0.8,0.86,0.71,0.0663,1018.24,4,3.96,191,6.2
Preble County,Ohio,Spring,39.70042,-84.62567,5/18/1977,Class A,88.18,64.23,60.84,0.59,0.29,0.02,0,1018.73,9,5.15,254,9.64
Preble County,Ohio,Fall,39.64146,-84.48506,9/1/1978,Class B,75.68,53.96,54.35,0.72,0.37,0.96,0,1022.52,8,7,73,2.88
Richland County,Ohio,Fall,40.61236,-82.48699,9/1/1998,Class A,76.17,60.64,53.92,0.73,0.22,0.33,0.0001,1014.55,8,9.95,228,2.14
Richland County,Ohio,Summer,40.74705,-82.64864,7/1/1996,Class B,83.9,60.88,63.2,0.65,0.03,0.52,0,1014.39,10,10,331,5.89
Stark County,Ohio,Summer,40.74451,-81.0758,8/21/1978,Class A,77.44,59.44,52.84,0.64,0.17,0.62,0,1025.63,8,10,48,3.88
Trumbull County,Ohio,Winter,41.36755,-80.76735,2/1/2000,Class A,26.89,11.01,16.44,0.76,1,0.88,0.0004,1015.37,2,5.23,267,11.09
Tuscarawas County,Ohio,Summer,40.62147,-81.34993,6/15/1988,Class B,91.89,67.76,55.46,0.44,0.33,0.05,0,1021.81,10,7.46,224,7.97
Van Zandt County,Texas,Fall,32.57306,-95.80556,8/30/2004,Class A,86.95,62.78,63.8,0.69,0.03,0.53,0,1017.32,9,10,40,1.97
Harrison County,Ohio,Fall,40.42655,-81.25576,10/1/2000,Class B,71.16,47.75,39.34,0.52,0.33,0.13,,1019.28,6,5.91,165,3.91
Stark County,Ohio,Unknown,40.75872,-81.19895,1/15/1992,Class A,22.33,-0.57,11.45,0.78,0.73,0.34,0.0023,1013.14,2,7.43,231,8.34
Multnomah County,Oregon,Fall,45.4684,-122.2487,9/5/2002,Class B,69.64,44.82,44.47,0.65,0.11,0.95,0,1016.53,6,10,292,1.92
Tuscarawas County,Ohio,Fall,40.6298,-81.5693,10/12/2002,Class B,60.57,53.61,54.54,0.89,0.85,0.23,0,1020.28,3,6.9,144,1.79
Ozark County,Missouri,Winter,36.615,-92.425,12/5/2004,Class A,46.78,46.78,37.91,0.87,0.6,0.78,0.0112,1013.13,2,5.46,104,3.8
Hood River County,Oregon,Fall,45.63923,-121.8735,9/24/2002,Class A,74.08,39.09,44.48,0.63,0,0.6,,1014.03,5,9.96,254,0.33
Douglas County,Missouri,Fall,36.7548,-92.1527,11/19/2004,Class B,55.5,50.17,49.19,0.91,0.87,0.26,0,1016.06,2,6.81,204,1.68
Kittitas County,Washington,Spring,47.3991,-121.1008,12/7/2004,Class B,34.1,33.06,29.63,0.9,1,0.85,0.0054,996.98,1,1.36,69,0.58
Chelan County,Washington,Fall,47.4822,-120.319,10/17/2002,Class B,71.6,39.31,32.77,0.4,0,0.39,0,1013.76,3,10,347,0.13
Shannon County,South Dakota,Fall,43.35851,-102.3971,12/4/2002,Class A,16.79,4.69,11.73,0.94,1,0.02,0.0029,1032.26,1,7.86,25,2.14
Humboldt County,California,Spring,40.94083,-123.6283,4/1/1961,Class B,56.71,38.71,45.96,0.95,0.76,0.52,,1024.92,4,8.17,329,2.84
Kern County,California,Fall,35.56805,-118.6078,10/26/2002,Class B,58.11,40.72,37.98,0.66,0.14,0.67,0,1010.86,5,3.98,231,0.69
Riverside County,California,Summer,33.7655,-116.7078,12/1/2002,Class B,49.73,30.65,34.6,0.92,0.09,0.91,,1019.45,3,10,87,0.79
Portage County,Ohio,Fall,41.2599,-81.1455,10/1/1995,Class B,76.92,53.89,55.3,0.74,0.23,0.25,0,1015.34,5,9.45,187,10.29
Del Norte County,California,Fall,41.75611,-124.2006,9/1/1975,Class B,61.1,48.14,49.8,0.85,0.1,0.85,,1017.33,8,8.91,329,15.88
Trumbull County,Ohio,Winter,41.1462,-80.62124,11/1/1997,Class B,55.85,43.94,47.87,0.85,0.92,0.04,0.0139,1003.05,2,5.95,134,7.76
Summit County,Ohio,Fall,41.23638,-81.62379,10/1/1998,Class A,58.11,37.91,42.72,0.62,0.58,0.35,0.0001,1015.71,5,10,321,9.07
Ottawa County,Michigan,Fall,42.86361,-86.16861,11/7/2002,Class A,51.49,51.98,33.25,0.71,0.37,0.11,0,1015.69,2,9.76,198,9.05
Greene County,Missouri,Summer,37.0968,-93.4303,8/9/2002,Class A,88.01,66.4,55.3,0.56,0,0.03,0,1018.99,10,9.66,122,4.78
Jefferson County,Washington,Spring,47.8306,-123.2135,10/13/2004,Class A,54.24,42.73,45.57,1,0.02,0.98,0,1028.54,3,10,6,1
Champaign County,Ohio,Spring,40.04792,-83.5556,5/1/1983,Class A,63.92,54.92,57.56,0.94,0.99,0.64,,1011.55,4,7.16,167,6.85
Washington County,Arkansas,Fall,36.20611,-94.23417,10/10/2002,Class A,66.2,61.06,55.66,0.86,1,0.16,,1016.99,4,8.74,68,3.92
Pierce County,Washington,Fall,47.0019,-121.6279,11/16/2002,Class A,39.3,33.22,32.17,0.94,0.61,0.4,0.0082,1011.72,1,7.7,269,2.97
Ashland County,Ohio,Fall,40.60787,-82.26236,8/29/2004,Class A,79.69,63.47,66.67,0.89,0.73,0.48,0.0013,1013.32,6,5.68,266,2.53
Martin County,Florida,Summer,27.0099,-80.13215,8/2/2004,Class A,85.02,73.79,72.97,0.86,0.82,0.57,0.0138,1014.83,6,9.83,223,5.28
Richland County,South Carolina,Fall,34.0431,-80.80685,10/10/1964,Class B,66.85,42.02,44.01,0.66,0,0.16,,1019.41,6,9.41,16,5.7
Portage County,Ohio,Fall,41.3235,-81.22745,11/2/2003,Class B,71.99,53.19,57.83,0.88,0.82,0.3,0.0003,1022.1,2,4.95,210,3.98
Teller County,Colorado,Summer,39.11636,-105.2155,3/19/2005,Class A,47.11,29.63,15.07,0.5,0.8,0.31,0,1012.33,5,3.4,205,1.56
Klickitat County,Washington,Summer,45.9358,-120.9855,3/18/2003,Class A,49.75,33.65,31.28,0.76,0.38,0.52,,1024.24,5,10,223,1.08
Umatilla County,Oregon,Fall,45.46571,-118.875,12/17/2002,Class A,44.44,27.46,27.44,0.75,0.26,0.43,0.0006,1003.76,1,9.63,158,3.48
Oneida County,Wisconsin,Summer,45.7264,-89.8741,7/15/2001,Class B,80.92,61.13,59.91,0.71,0.66,0.81,,1015.26,6,,179,1.52
Bay County,Florida,Unknown,30.32305,-85.4427,5/15/1972,Class B,79.95,68.99,68.95,0.8,0.36,0.09,,1013.72,9,9.92,226,3.72
Bourbon County,Kansas,Summer,37.7684,-94.97862,8/17/2001,Class B,82.34,64.35,65.82,0.75,0.28,0.95,0,1017.65,9,9.83,103,2.82
Las Animas County,Colorado,Spring,37.09263,-104.3786,4/12/2005,Class A,57.41,30.04,18.96,0.49,0,0.13,0,1015.98,10,9.62,213,2.17
Rapides Parish,Louisiana,Summer,31.3904,-92.3495,7/1/1985,Class A,93.89,72.89,65.5,0.63,0.4,0.47,0.0082,1019.56,10,6.65,199,3.12
Nowata County,Oklahoma,Winter,36.91528,-95.80417,10/20/2003,Class A,87.46,50.13,54.42,0.64,0,0.82,,1016.81,5,10,200,5.64
Crawford County,Kansas,Summer,37.4253,-94.7844,6/5/1982,Class B,78.25,64.19,58.27,0.82,0.55,0.47,,1015.63,9,4.27,123,6.9
Umatilla County,Oregon,Winter,45.58982,-118.6131,10/5/2004,Class B,77.39,52.07,32.35,0.38,0,0.73,0,1017.48,4,9.64,143,0.5
Lincoln County,Oklahoma,Fall,35.86972,-96.968,1/31/2003,Class A,59.55,32.16,33.31,0.72,0.12,0.98,0,1020.07,4,7.66,287,4.39
Leon County,Florida,Winter,30.4836,-84.20835,12/31/2001,Class A,51.83,28.25,23.15,0.52,0.74,0.54,0,1020.79,3,10,344,4.08
Owyhee County,Idaho,Spring,42.79166,-116.25,6/15/1963,Class A,78.88,56.94,54.26,0.71,0.82,0.79,,1017.68,7,10,52,1.54
Pierce County,Washington,Fall,47.0586,-122.2864,11/15/2002,Class B,50.4,38.21,41.39,0.94,0.68,0.37,0.0006,1020.41,1,7.57,174,1.19
Pulaski County,Illinois,Summer,37.1142,-89.1979,11/27/2004,Class B,48.29,32.53,41.17,0.82,1,0.53,0.0204,1008.32,2,9.08,188,6.46
Whatcom County,Washington,Summer,48.76075,-122.2156,4/23/2003,Class A,50.51,45.07,43.66,0.85,0.87,0.76,0.0148,1007.52,4,9.38,87,2.7
Alpine County,California,Summer,38.77778,-119.8208,8/1/2002,Class B,86.69,50.29,38.3,0.35,0.27,0.76,,1017.49,11,10,295,0.1
Escambia County,Florida,Spring,30.9905,-87.1814,4/15/1994,Class A,81.53,62.62,70.94,0.88,0.96,0.14,,1016.54,5,4.7,196,7.39
Hughes County,Oklahoma,Summer,35.27056,-95.97,2/11/2003,Class A,57.12,33.44,27.83,0.56,0,0.32,0,1018.81,4,10,72,1.57
Klickitat County,Washington,Fall,45.88039,-121.1692,4/23/2003,Class B,55.54,37.85,36.72,0.73,0.3,0.76,0.0127,1007.24,8,9.83,238,2.68
Rusk County,Texas,Summer,32.27444,-94.965,10/8/2003,Class A,82.55,69.4,67.18,0.85,0.37,0.45,0,1016.07,4,4.85,97,3.62
Lincoln County,Wyoming,Fall,42.4829,-110.5979,9/14/2002,Class B,70.8,27.26,27.67,0.44,0,0.28,,1019.18,7,10,267,1.73
Clallam County,Washington,Fall,47.9477,-124.5301,4/5/2005,Class B,48.05,47.45,39.04,0.74,0.99,0.89,0.0235,1016.85,4,8.96,132,18.25
Fulton County,Georgia,Fall,33.70037,-84.53352,9/1/1961,Class A,87.26,68.84,70.23,0.81,0.84,0.73,0.0033,1018.23,6,8.2,173,8.6
El Paso County,Colorado,Fall,39.0621,-105.0138,10/9/2002,Class B,62.38,35.27,30.97,0.61,0.39,0.12,0,1015.6,6,9.35,185,1.66
Benton County,Arkansas,Fall,36.18333,-94.44694,4/4/2004,Class A,64.89,38.15,29.4,0.43,0.01,0.47,0,1020.89,8,10,36,4.02
Gasconade County,Missouri,Spring,38.28,-91.6253,4/11/2003,Class A,72.46,43.65,33.73,0.47,0,0.31,,1015.6,9,10,345,1.31
Wahkiakum County,Washington,Spring,46.33425,-123.5439,4/24/2003,Class A,48.29,35.96,39.11,0.91,0.6,0.79,0.0086,1008.54,6,9.62,179,2.75
Sampson County,North Carolina,Fall,35.18637,-78.63611,11/15/1976,Class A,41.33,34.21,37.81,0.95,1,0.78,,1015.23,2,2.63,15,5.38
Jefferson County,Washington,Spring,47.94056,-122.7919,5/8/2003,Class A,57.14,45.49,41.47,0.73,0.6,0.23,,1014.89,7,8.44,315,3.64
Perry County,Ohio,Spring,39.64193,-82.1013,5/11/2003,Class A,73.09,50.63,56.92,0.71,0.65,0.33,,1002.81,9,9.08,231,13.07
Medina County,Ohio,Spring,41.03,-82.0101,5/1/2003,Class A,79.2,50.37,58.97,0.76,0.42,0.01,0.0107,1010.18,8,7.48,206,7.31
Yakima County,Washington,Summer,46.4984,-120.4474,7/21/2003,Class A,95.49,58.55,46.09,0.35,0,0.76,0,1016.15,9,10,206,0.31
Monroe County,Iowa,Winter,41.02174,-92.73979,1/14/1976,Class B,34,19.98,12.66,0.7,0,0.41,,1028.93,2,10,234,10.67
Saunders County,Nebraska,Summer,41.2333,-96.42668,7/4/1979,Class B,72.69,63.69,66.13,0.84,0.95,0.32,,1014.75,5,6.61,69,7.44
Wahkiakum County,Washington,Fall,46.35639,-123.6081,11/11/1978,Class A,44,28.18,18.42,0.51,0.3,0.4,0,1021.68,2,10,72,4.35
Washington County,Rhode Island,Fall,41.45,-71.5,9/20/1974,Class A,78.17,68.68,65.72,0.86,0.86,0.16,0,1020.61,4,2.75,198,6.92
Caddo County,Oklahoma,Summer,35.33389,-98.13028,6/13/2003,Class A,84.27,67.38,67.3,0.83,0.26,0.47,0.0176,1009.31,11,10,97,2.61
East Baton Rouge Parish,Louisiana,Summer,30.49905,-91.01565,6/5/1982,Class A,94.08,72.08,70.47,0.66,0.03,0.47,0,1013.63,11,8,354,4.34
Guadalupe County,Texas,Summer,29.385,-97.81083,10/8/2003,Class B,83.5,74.24,71.46,0.83,0.79,0.45,0.0057,1013.47,4,6.43,110,4.09
Harney County,Oregon,Summer,43.85975,-118.8215,7/2/2003,Class B,72.81,42.28,32.51,0.42,0.02,0.1,0,1013.66,11,10,269,2.33
Columbiana County,Ohio,Summer,40.68935,-80.57593,7/16/2001,Class A,85.07,64.59,57.9,0.6,0.69,0.85,0,1018.45,5,10,217,2.15
Barren County,Kentucky,Summer,37.1496,-86.0163,2/4/2005,Class B,51.22,27.84,27.14,0.72,0.2,0.84,0,1029.63,4,5.41,39,0.75
El Dorado County,California,Summer,38.85556,-120.0133,7/20/2003,Class A,83.43,57.83,50.54,0.51,0.08,0.73,0.0043,1019.88,11,10,224,0.33
Washington County,Rhode Island,Summer,41.432,-71.65183,7/15/1978,Class A,68.56,63.05,62.27,0.88,0.8,0.33,0.0285,1014.7,5,5.71,161,5.47
Hernando County,Florida,Winter,28.5716,-82.52655,2/17/2004,Class A,59.56,39.1,46.58,0.8,0.75,0.91,0.0004,1026.2,6,9.37,337,3.51
Okanogan County,Washington,Summer,48.9138,-119.7023,6/15/1994,Class B,62.23,44.21,36.28,0.56,,0.22,,1012.03,0,,288,4.05
Muskingum County,Ohio,Summer,39.90416,-81.98721,7/26/2003,Class A,84.52,71.44,63.03,0.74,0.06,0.91,,1023.28,9,6.01,214,4.16
Polk County,Oregon,Summer,45.0487,-123.5792,7/24/2003,Class B,81.23,50.22,48.07,0.58,0,0.85,0,1015.92,9,10,344,3.61
Montezuma County,Colorado,Fall,37.4125,-108.1292,8/30/2003,Class B,61.47,40.14,45.24,0.84,0.28,0.11,0.0061,1016.96,8,10,47,1.2
Lake County,Colorado,Spring,39.0917,-106.4417,5/29/2002,Class A,64.55,34.9,23.1,0.4,0.2,0.62,,1013.72,12,10,340,3.78
Butler County,Ohio,Unknown,39.49695,-84.45905,6/1/1986,Class A,86,55.33,63.77,0.71,0.34,0.82,0,1009.7,8,4.89,238,5
Clark County,Washington,Summer,45.8331,-122.3985,11/5/2003,Class A,46.63,29.26,21.73,0.54,0.28,0.4,0,1022.16,2,10,84,3.21
Cass County,Illinois,Winter,40.04505,-90.1498,11/14/2004,Class B,52.34,36.04,31.5,0.71,0.03,0.08,0,1038.23,3,9.52,97,5.86
Forest County,Pennsylvania,Summer,41.47511,-79.3178,7/3/1980,Class B,80.64,56.13,60.81,0.75,0.74,0.69,0.0087,1015.68,7,5.07,302,3.15
Jefferson County,Ohio,Winter,40.34042,-80.64211,12/1/1978,Class B,46.34,31.62,22.08,0.69,0.16,0.05,0,1017.99,2,9.12,184,4.93
Kern County,California,Summer,35.44986,-118.5821,9/7/2003,Class B,77.25,44.49,44.84,0.54,0,0.4,0,1011.87,9,10,287,2.01
Whatcom County,Washington,Summer,48.9058,-121.6967,8/15/2003,Class B,84.15,55.5,45.87,0.44,,0.62,0,1015.03,0,,99,0.72
Columbiana County,Ohio,Fall,40.77972,-80.64831,11/1/2001,Class A,68.54,58.05,38.65,0.46,0.88,0.51,0,1023.12,2,10,181,7.98
Tuscaloosa County,Alabama,Summer,33.21145,-87.35664,8/30/2003,Class A,90,72.06,73.43,0.85,0.6,0.1,0.018,1020.25,9,9.65,185,1.11
Jack County,Texas,Fall,33.13333,-98.35,10/21/2003,Class A,89.39,52.52,52.29,0.61,0,0.86,0,1018.46,6,10,225,2.78
Greene County,North Carolina,Fall,35.42525,-77.67995,10/16/1968,Class B,79.84,66,65.82,0.86,0.64,0.81,,1023.85,3,5.63,94,6.77
Pierce County,Washington,Fall,47.0228,-121.5497,12/9/2003,Class B,32.04,28.85,26.58,0.88,1,0.53,0.0003,1017.39,1,1.06,82,1.56
Lee County,Florida,Spring,26.6685,-81.8768,2/17/2004,Class B,64.43,44.68,50.42,0.74,0.33,0.91,0,1025.09,7,10,335,8.18
Cherokee County,Georgia,Fall,34.1962,-84.50055,10/2/2003,Class B,68.15,43.83,40.58,0.63,0.04,0.24,0,1020.46,7,10,344,0.88
Lawrence County,Kentucky,Fall,38.02825,-82.83425,2/9/2005,Class A,55.32,32.12,47.27,0.89,0.98,0.03,0.0066,1012.75,3,3.9,270,2.89
Tuscaloosa County,Alabama,Summer,33.26035,-87.31821,6/28/2003,Class A,87.11,68.03,69.9,0.83,0.4,0.96,0,1015.77,8,10,83,0.35
Pitkin County,Colorado,Fall,39.45824,-106.625,9/17/2003,Class A,59.46,17.76,28.12,0.53,0.48,0.72,0,1003.01,8,10,257,4.42
Benton County,Arkansas,Spring,36.34167,-93.94583,10/31/2003,Class A,77.63,53.22,57.48,0.72,0.71,0.23,,1017.36,3,8.69,218,2.98
Hot Spring County,Arkansas,Winter,34.39,-93.23111,10/31/2003,Class B,78.82,62.14,68.22,0.86,0.81,0.23,,1018.62,3,8.98,160,4.57
Rogers County,Oklahoma,Fall,36.18889,-95.74556,10/9/2003,Class A,77.82,56.55,64.82,0.85,0.75,0.48,0.0558,1012.09,5,7.98,61,2.32
Washington County,Ohio,Summer,39.3731,-81.65929,7/1/1990,Class A,84.41,55.44,67.34,0.79,0.73,0.3,,1011.9,5,6.07,324,4.79
Walker County,Georgia,Fall,34.77525,-85.3297,10/7/2003,Class B,75.04,62.39,59.49,0.85,0.56,0.42,0,1018.86,6,7.45,65,0.82
Marquette County,Michigan,Summer,46.47182,-87.42407,7/14/1996,Class A,63.64,52.83,53.82,0.87,,0.97,0,1010.41,4,,283,7.58
St. Johns County,Florida,Winter,30.0771,-81.39806,10/7/2006,Class B,75.86,59.81,63.9,0.76,0.61,0.52,0,1016.94,5,7.84,23,3.6
Carroll County,Georgia,Summer,33.5388,-84.869,10/26/2003,Class A,67.09,61.21,61.71,0.92,0.85,0.04,0.02,1019.27,3,4.86,121,0.81
Trinity County,California,Fall,40.98333,-122.6986,10/14/2003,Class B,75.08,48.06,23.64,0.24,0.01,0.64,0,1019.78,5,10,226,0.47
Yakima County,Washington,Fall,46.80505,-121.0909,11/7/2003,Class A,34.04,29.34,15.51,0.62,0.71,0.46,0,1024.55,2,9.89,60,0.75
Umatilla County,Oregon,Summer,45.9957,-118.1253,6/30/1976,Class A,72.76,45.74,46.04,0.6,0.8,0.11,,1011.43,9,10,213,9.07
Ross County,Ohio,Summer,39.49265,-83.11422,7/1/1980,Class A,79.13,65.08,59.66,0.73,0.7,0.61,,1016.82,5,9.75,179,4.13
Hillsdale County,Michigan,Spring,41.79639,-84.4587,5/1/2003,Class B,71.09,49.16,55.89,0.8,0.64,0.01,0.0262,1008.83,9,7.28,234,2.45
Tucker County,West Virginia,Summer,39.0417,-79.43762,7/4/1987,Class A,78.92,60.9,55.96,0.72,0.94,0.26,0.0028,1015.04,5,5.17,330,2.72
Linn County,Oregon,Summer,44.6616,-122.8494,7/15/2001,Class B,68.79,55.34,48.81,0.68,0.76,0.82,0,1014.27,5,10,313,5.95
Yuba County,California,Fall,39.08,-121.42,10/1/1959,Class B,81.05,53.47,35.08,0.32,0.01,0.97,,1006.07,6,10,353,9.08
Washington County,Ohio,Winter,39.54739,-81.39101,11/1/1978,Class A,62.38,36.29,44.53,0.82,0.37,0.03,,1025.33,2,4.82,14,3.07
Portage County,Ohio,Fall,41.13356,-81.17155,10/10/2003,Class A,72.54,53.23,57.02,0.8,0.87,0.52,0.0007,1020.35,3,7.21,102,1.81
Madison County,Alabama,Summer,34.7325,-86.52105,5/28/2004,Class A,75.96,63.27,66.6,0.85,0.79,0.3,0.0037,1012.31,6,8.62,259,2.09
White County,Georgia,Fall,34.672,-83.714,11/25/1999,Class A,62.05,54.86,59.23,0.97,0.99,0.59,0.1131,1015.5,2,3.48,109,4.7
Alcona County,Michigan,Fall,44.6375,-83.51418,11/7/2003,Class B,32.41,18.79,15.1,0.59,0.44,0.46,0,1023.16,2,9.94,267,10.22
Ottawa County,Michigan,Summer,43.103,-86.075,7/16/1994,Class B,78.06,62.03,60.94,0.79,0.57,0.27,0,1020.31,8,9.29,192,4.21
Louisa County,Virginia,Winter,38.02516,-77.97089,12/15/1998,Class A,50.81,32.84,21.69,0.59,0,0.9,,1026.33,2,,183,1.5
Placer County,California,Fall,39.11167,-120.4683,10/14/2003,Class B,70.03,48.55,22.73,0.27,0,0.64,0,1015.5,5,9.95,199,1.4
Monterey County,California,Spring,36.2485,-121.495,4/1/1993,Class A,54.32,38.6,45.6,0.92,0.53,0.32,,1018.29,7,9.25,301,6.27
Chatham County,Georgia,Winter,31.98125,-80.89485,1/2/1976,Class B,63.61,44.21,44.47,0.79,0.55,0.04,0,1022.41,2,7.47,83,4.72
Sierra County,California,Summer,39.5575,-120.8294,8/30/2002,Class B,87.92,60.42,41.57,0.32,0.13,0.74,0,1010.57,9,10,227,0.94
Ontario County,New York,Fall,42.6153,-77.4028,10/7/2006,Class A,62.85,40.75,36.35,0.71,0.22,0.52,0,1031.13,5,8.42,127,0.56
Cowlitz County,Washington,Summer,46.0471,-122.8294,7/15/2001,Class A,60.12,54.4,49.21,0.76,0.9,0.82,,1014.33,4,10,316,2.08
Berrien County,Michigan,Winter,42.0288,-86.5153,12/15/1974,Class B,43.5,35.63,35.84,0.86,1,0.07,0.0185,1006.42,1,5.61,154,13.74
Lenawee County,Michigan,Spring,41.93,-84.35389,5/15/1977,Class A,80.93,55.01,37.37,0.4,0.17,0.93,,1019.32,8,9.83,138,7.16
Walla Walla County,Washington,Fall,46.0573,-117.9793,11/19/2003,Class A,51.88,24.2,30.19,0.78,0.54,0.85,0.0048,1010.36,1,9.46,223,7.94
Arenac County,Michigan,Fall,43.92736,-83.92834,11/15/2003,Class A,43.23,38.56,33.2,0.81,0.91,0.7,,1017.86,2,7.79,200,6.64
Lee County,Alabama,Winter,32.6218,-85.4258,11/26/2003,Class A,64.6,50.61,36.96,0.64,0.05,0.11,0,1019.86,4,9.99,113,1.17
Summit County,Ohio,Fall,41.10765,-81.4311,9/1/1978,Class A,75.93,55.34,50.81,0.62,0.04,0.96,0,1022.93,7,9.54,34,3.67
Kitsap County,Washington,Summer,47.763,-122.5344,11/16/2004,Class A,52.65,40.56,44.86,0.88,0.91,0.16,0.0014,1022.14,1,8.83,183,2.98
Humboldt County,California,Fall,41.23528,-123.6581,11/16/2003,Class B,51.63,47.69,45.18,0.84,1,0.74,0.0178,1017.86,2,6.86,150,0.28
Grays Harbor County,Washington,Fall,46.81045,-124.072,10/15/1999,Class A,58.25,35.56,41.13,0.83,0.45,0.2,,1031.31,3,9.17,81,1.78
Walker County,Georgia,Fall,34.66029,-85.39171,11/1/1974,Class B,74.96,46.75,51.89,0.81,0.81,0.55,0,1022.76,3,8.71,210,2.08
Cleveland County,Oklahoma,Winter,35.27639,-97.33528,11/29/2003,Class A,63.56,41.27,18.85,0.36,0.03,0.21,0,1020.97,3,10,193,15.14
Pocahontas County,West Virginia,Fall,38.7084,-79.7802,10/19/1991,Class B,59.19,30.21,39.4,0.88,0.86,0.37,0,1022.61,3,6.25,308,3.99
Pierce County,Washington,Spring,46.79955,-122.2738,5/31/1981,Class B,61.34,38.87,44.58,0.76,0.54,0.93,,1019.69,8,9.76,7,1.47
King County,Washington,Winter,47.39,-122.2187,12/25/1986,Class A,44.21,42.23,38.23,0.85,0.98,0.8,0.0307,1016.98,1,7.22,156,3.87
Columbiana County,Ohio,Fall,40.72943,-80.59236,10/1/1997,Class B,56.22,35.63,40.6,0.67,0.63,0.99,0.0048,1015.53,4,9.67,327,8.76
Harrison County,Texas,Fall,32.68945,-94.59222,11/29/2003,Class A,61.72,37.01,24.9,0.53,0,0.21,0,1028.05,3,10,194,3.53
Ulster County,New York,Spring,41.66955,-74.0863,5/23/1997,Class B,66.4,43.37,38.1,0.55,0.34,0.54,,1018.88,9,10,320,6.85
Polk County,Oregon,Winter,45.0608,-123.694,12/8/2003,Class A,47.04,42.29,42.33,0.95,0.78,0.49,0.0004,1021.65,1,6.72,97,2.01
Rusk County,Texas,Fall,32.35306,-94.90528,12/12/2003,Class A,50.93,40.18,35.69,0.72,0.92,0.62,0.0265,1017.34,2,9.02,93,6.08
Hood County,Texas,Summer,32.53333,-98.05,12/12/2003,Class B,49.44,32.91,36.58,0.74,0.89,0.62,0.0037,1014.21,2,7.27,114,1.92
Shasta County,California,Spring,40.8875,-122.3775,8/1/1977,Class A,105.06,73.38,44.44,0.26,0.64,0.58,,1015.58,5,8.67,152,1
Leavenworth County,Kansas,Winter,39.3716,-94.9,1/8/2005,Class B,29.71,28.49,21.81,0.86,0.85,0.93,0,1024.7,2,6.38,150,2.13
Grant County,Oregon,Fall,44.825,-118.415,11/15/1973,Class A,40.16,37.13,36.85,0.93,1,0.69,,1010.42,2,10,151,14.47
Mason County,Washington,Fall,47.2293,-123.4898,11/16/2004,Class B,49.42,33.45,43.18,0.95,0.77,0.16,0.0035,1022.03,1,5.97,205,0.96
Skamania County,Washington,Summer,45.723,-121.8864,2/5/2005,Class B,41.31,35.41,33.32,0.81,0.86,0.88,0.0012,1020.92,2,8.73,267,3.34
Houston County,Texas,Winter,30.95972,-95.58334,1/9/2004,Class B,57.88,34.46,38.9,0.69,0.4,0.57,,1026.43,4,8.75,350,8.49
Pasco County,Florida,Summer,28.41655,-82.1426,2/15/2004,Class B,69.58,44.15,57.88,0.82,0.72,0.83,0,1014.25,4,9.83,250,2.73
Hunt County,Texas,Winter,32.94722,-96.10222,12/24/2003,Class A,58.99,40,28.17,0.57,0,0.05,0,1021.47,3,10,131,1.93
Marion County,Oregon,Summer,45.03575,-122.7789,7/15/1980,Class B,82.9,53,53.25,0.62,0.1,0.12,0,1020.35,9,10,356,3.78
Panola County,Texas,Winter,32.04361,-94.37444,12/28/2003,Class A,59.11,41.11,51.71,0.92,1,0.19,0.0272,1016.28,2,6.43,321,1.03
Deschutes County,Oregon,Spring,44.1263,-121.3338,5/15/1976,Class B,74.46,34.52,21.55,0.34,0.01,0.57,,1020.25,10,10,336,2.18
Clackamas County,Oregon,Summer,45.0837,-122.4888,8/15/1984,Class A,85.55,54.47,52.08,0.65,0,0.63,0,1013.82,8,10,352,0.85
Rusk County,Texas,Winter,32.33528,-94.7375,12/30/2003,Class A,61.54,30.55,25.74,0.58,0,0.26,0,1025.6,3,10,161,3.75
Rusk County,Texas,Fall,32.28944,-94.86833,12/30/2003,Class B,61.41,30.42,25.71,0.58,0,0.26,0,1025.6,3,10,161,3.73
Sumner County,Kansas,Spring,37.0581,-97.3374,1/27/2005,Class A,39.61,34.15,27.57,0.74,0.55,0.57,0,1027.14,3,9.58,79,5.35
Miami County,Ohio,Fall,39.89172,-84.14493,9/3/2003,Class A,78.05,63.65,65.97,0.85,0.72,0.25,0.0002,1015.54,5,5.8,266,4.18
Pendleton County,West Virginia,Winter,38.6934,-79.5653,1/1/2004,Class B,48.17,37.41,35.47,0.9,0.27,0.32,0,1028.68,2,9.73,266,2.25
Tehama County,California,Winter,39.92778,-122.1781,10/15/1973,Class A,82.78,52.77,50.16,0.6,0.33,0.63,0,1016.48,5,10,326,2.67
Multnomah County,Oregon,Fall,45.5145,-122.3352,10/15/1979,Class A,67.19,50.72,54.48,0.87,0.95,0.84,0.003,1019.22,3,7.23,130,1.48
Crawford County,Michigan,Summer,44.82167,-84.47611,7/15/2000,Class B,73.93,59.54,57.78,0.78,0.58,0.47,,1009.74,5,9.82,0,7.57
Smith County,Texas,Winter,32.51556,-95.41817,10/3/2004,Class B,82.44,65.28,64.29,0.76,0.28,0.67,0.0002,1021.93,5,9.07,47,0.8
Nevada County,California,Winter,39.26361,-121.0161,1/4/2004,Class A,41.99,29.09,24.96,0.77,0.05,0.41,0.0002,1027.33,2,10,31,0.23
Sarpy County,Nebraska,Summer,41.134,-95.88,1/6/2005,Class A,9.8,7.39,1.68,0.82,0.31,0.86,0.0009,1020.34,2,8.21,212,1.49
Pope County,Arkansas,Summer,35.27833,-93.13361,8/12/2003,Class A,84.42,71.82,66.34,0.8,0.24,0.53,,1016.42,9,6.83,41,1.48
Portage County,Ohio,Summer,41.16187,-81.37181,7/1/1987,Class B,70.16,63.47,59.67,0.8,1,0.17,0.0405,1017.32,5,3.88,114,4.15
Tom Green County,Texas,Fall,31.45417,-100.4161,11/19/2004,Class A,70.01,52.57,51.43,0.84,0.07,0.26,0,1016.28,4,9.54,132,0.47
Tioga County,New York,Winter,42.40489,-76.17366,1/1/2001,Class B,19.57,6.9,10.44,0.8,0.59,0.21,0.0002,1022.07,1,6.71,312,9.51
Okeechobee County,Florida,Winter,27.3973,-80.8044,1/18/2004,Class A,70.8,62.03,61.24,0.91,0.57,0.88,0.0341,1011.3,3,7.97,212,3.46
Fairfield County,Ohio,Summer,39.74107,-82.70263,6/29/2000,Class A,76.29,51.12,55.68,0.71,0.31,0.92,0.0007,1013.07,9,9.77,292,5.74
Orleans County,New York,Summer,43.2265,-78.1946,8/22/2002,Class B,82.25,66.04,64.99,0.79,0.74,0.49,0.0008,1016.09,4,8.33,239,4.76
Lawrence County,Ohio,Summer,38.54852,-82.66616,8/25/1980,Class A,85.67,63.69,67.5,0.82,0.44,0.48,0,1020.61,8,5.23,99,2.89
Columbia County,Oregon,Fall,45.82565,-123.296,11/9/2003,Class B,53.74,39.36,39.7,0.86,0.42,0.52,0.0038,1013.94,2,9.61,262,0.52
Prince of Wales County,Alaska,Winter,55.2035,-132.8202,2/9/2004,Class A,44.5,42.48,41.51,0.92,0.98,0.62,0.033,1025.88,1,6.29,138,17.42
Miller County,Arkansas,Winter,33.18639,-93.9475,2/19/2004,Class A,71.91,58.49,44.08,0.66,0.15,0.98,0,1013.87,5,9.35,183,10.09
Medina County,Ohio,Fall,41.06648,-81.96419,9/25/2001,Class A,47.7,41.25,42.82,0.9,1,0.29,0.0115,1014.8,4,8.94,260,11.31
Jefferson County,Ohio,Spring,40.3725,-80.67828,6/1/2001,Class B,73.52,53.26,53.99,0.8,0.72,0.35,0.0362,1008.02,8,8.56,188,5.31
Nevada County,California,Winter,39.21667,-120.8983,12/2/2003,Class B,56.53,43.01,43.77,0.85,0.53,0.32,0.0018,1025.81,2,7.91,134,0.88
Bowie County,Texas,Fall,33.28333,-94.35722,2/19/2004,Class A,72.01,57.6,41.21,0.7,0.15,0.98,0,1013.87,5,9.35,182,9.97
Guernsey County,Ohio,Fall,40.08946,-81.69818,10/25/1996,Class A,62.38,49.78,38.23,0.68,0.77,0.47,,1020.14,3,10,152,5.14
Dyer County,Tennessee,Fall,36.09583,-89.48666,1/10/2005,Class A,58.2,58.2,48.93,0.88,0.97,0.02,,1021.23,2,7.31,178,4.11
Harrison County,Texas,Fall,32.8,-94.16666,2/22/2004,Class A,67.37,44.22,35.59,0.55,0.13,0.08,0,1019.19,6,10,142,1.82
Siskiyou County,California,Summer,41.72944,-122.6361,7/15/1994,Class B,95.82,54.8,40.86,0.31,0,0.24,0,1014.65,10,10,356,6.05
Harrison County,Texas,Winter,32.62194,-94.2,2/27/2004,Class A,60.75,37.48,35.51,0.69,0.22,0.24,0,1024.79,5,8.93,129,2.77
Harrison County,Texas,Winter,32.62389,-94.52,2/27/2004,Class A,62.55,36.47,34.37,0.66,0.05,0.24,0,1024.58,6,9.24,138,3
Harrison County,Texas,Winter,32.65,-94.37361,2/28/2004,Class B,60.87,52.29,39.04,0.65,0.33,0.27,0,1023.31,5,9.46,136,4.35
Harrison County,Texas,Winter,32.58333,-94.15,2/28/2004,Class A,60.74,51.84,40.23,0.7,0.58,0.27,0,1024.05,4,9.96,132,6.13
Shelby County,Alabama,Winter,33.3674,-86.64066,5/9/2004,Class A,89.48,67.57,58.77,0.61,0.16,0.68,0,1019.51,10,9.4,47,0.2
Mason County,Washington,Summer,47.23194,-122.885,6/8/2004,Class B,74.79,55.87,51.6,0.72,0.47,0.71,0,1012.09,9,9.4,249,1.64
Douglas County,Oregon,Winter,43.3029,-123.1611,10/15/2002,Class A,82.68,44.48,32.29,0.32,0,0.33,,1015.16,4,9.91,11,0.5
Humboldt County,California,Summer,41.28694,-124.0586,6/28/2003,Class B,99.86,58.73,51.44,0.4,0.31,0.97,0,1011.11,10,7.89,305,1.22
Licking County,Ohio,Winter,40.05998,-82.28814,1/15/1984,Class A,20.41,11.45,6.32,0.63,0.63,0.39,,1032.7,2,8.92,4,8.2
Clay County,Florida,Spring,29.98085,-81.80005,3/18/2004,Class A,79.42,51.97,47.92,0.64,0.12,0.93,0,1020.37,8,9.32,169,3.17
Washtenaw County,Michigan,Summer,42.15965,-83.55718,6/19/1999,Class B,72.21,55.97,49.7,0.62,0,0.21,0,1028.63,10,10,126,4.98
Clark County,Washington,Winter,45.8911,-122.4076,2/15/1993,Class A,39.11,21.39,15.46,0.47,0.21,0.82,0,1020.64,3,10,91,12.24
Wood County,Texas,Winter,32.69028,-95.61056,3/25/2004,Class A,79.5,66,60.25,0.77,0.9,0.15,0,1021.64,4,8.79,150,12.41
Oklahoma County,Oklahoma,Summer,35.42014,-97.21555,3/26/2004,Class A,73.97,63.52,61.03,0.75,0.75,0.18,0,1016.7,5,9.92,174,15.07
Washtenaw County,Michigan,Spring,42.40611,-83.58,3/27/2004,Class A,56.33,42.31,47.95,0.86,0.92,0.21,0,1026.41,4,8.59,63,4.24
Josephine County,Oregon,Summer,42.24165,-123.6416,7/20/2002,Class A,90.29,55.62,48.39,0.42,0.01,0.38,0,1015.12,10,8.33,352,4.32
Glynn County,Georgia,Summer,31.08925,-81.41267,7/4/1963,Class A,95.08,75.98,76.21,0.79,0.61,0.42,,1013.07,6,,317,2.43
Stark County,Ohio,Summer,40.7343,-81.15622,8/1/1978,Class A,81.4,66.47,57.86,0.63,0.42,0.92,0,1017.41,8,7.69,211,4.93
Saline County,Arkansas,Spring,34.53167,-92.40778,4/3/2004,Class A,72.78,48.05,39.45,0.54,0.22,0.44,0,1018.19,8,8.15,307,5.79
Kosciusko County,Indiana,Fall,41.3382,-85.7037,10/11/2003,Class A,77.72,50.62,58.97,0.78,0.26,0.54,,1016.82,5,5.8,164,1.78
Hardin County,Ohio,Spring,40.6559,-83.9374,3/25/2004,Class A,65.4,56.39,45.66,0.64,0.95,0.15,0.002,1026.41,4,9.99,201,9.24
Fairfield County,Ohio,Spring,39.5246,-82.6353,4/3/2004,Class B,58.18,35.51,36.4,0.68,0.69,0.43,,1008.73,7,8.93,286,9.56
Alpine County,California,Fall,38.4775,-120.0047,11/1/2001,Class B,53.77,22.81,26.99,0.81,0.16,0.52,,1020.22,4,9.08,183,1.71
Carroll County,Ohio,Summer,40.54605,-81.26217,8/1/1976,Class A,70.76,51.86,52.57,0.67,0.32,0.2,0,1014.85,7,9.46,352,8.47
Duval County,Florida,Spring,30.4544,-81.4189,3/1/1994,Class A,70.08,64.22,56.74,0.82,0.81,0.63,0.003,1018.37,4,6.97,147,10.25
Sebastian County,Arkansas,Summer,35.09306,-94.356,4/23/2004,Class A,76.76,63.17,66.4,0.87,0.71,0.13,0.0013,1012.62,6,8.51,89,4.27
Travis County,Texas,Summer,30.38667,-98.08611,4/24/2004,Class A,67.2,62.34,63.8,0.9,0.98,0.16,0.0195,1012.42,5,8.67,17,0.77
Freestone County,Texas,Winter,31.87333,-96.2,4/28/2004,Class B,75.91,63.12,53.12,0.65,0.3,0.28,0,1016.24,10,9.98,162,4.49
Sarasota County,Florida,Summer,27.1788,-82.20475,8/5/2004,Class B,87.83,79.63,75.38,0.79,0.42,0.68,0.0018,1012.75,9,9.86,271,5.17
Medina County,Ohio,Fall,41.02572,-81.77677,9/1/1976,Class A,72.88,56.01,57.73,0.74,0.83,0.27,0.0003,1018.21,4,7.65,231,5.72
Muskogee County,Oklahoma,Spring,35.7575,-95.60667,5/3/2004,Class A,67.09,49.78,39.4,0.61,0,0.46,0.0072,1022.67,10,10,125,3.24
Snohomish County,Washington,Winter,47.87725,-121.8943,7/3/2004,Class A,68.78,55.9,54.61,0.79,0.77,0.55,0.0012,1018.1,5,9.3,350,1.33
Potter County,Pennsylvania,Spring,41.7655,-77.8768,5/9/2004,Class A,68.82,56.21,54.84,0.86,0.71,0.68,0.0515,1019.45,8,8.26,226,3.23
Covington County,Alabama,Spring,31.29,-86.255,9/12/2007,Class B,91.54,73.49,72.47,0.8,0.56,0.04,0.0063,1011.73,7,8.28,234,2.06
King County,Washington,Summer,47.46312,-121.4454,5/25/2004,Class B,61.01,42.42,39.84,0.79,0.39,0.2,0.0076,1016.01,10,8.32,238,0.65
Latimer County,Oklahoma,Spring,34.92333,-95.26167,5/14/2004,Class A,59.71,54.24,55.04,0.89,0.99,0.86,0,1020.13,5,9.1,349,1.57
St. Clair County,Alabama,Fall,33.6205,-86.4664,9/30/2004,Class A,78.01,55.2,51.38,0.69,0,0.57,0,1017.5,7,9.21,328,0.44
Grant County,Kentucky,Fall,38.528,-84.588,2/2/2005,Class A,36.59,30.94,25.96,0.81,0.39,0.77,0.0019,1026.43,3,6.27,55,2.6
Worcester County,Massachusetts,Winter,42.6688,-71.9023,12/17/1977,Class A,36.37,16.69,16.08,0.6,0.06,0.25,0,1018.62,1,10,328,5.66
Bolivar County,Mississippi,Winter,33.56555,-90.8022,1/30/2005,Class A,45.23,38.91,38.28,0.84,1,0.67,0,1022.54,3,9.71,31,6.96
Coos County,Oregon,Fall,43.2547,-124.0598,8/15/1949,Class A,64.8,57.77,53.87,0.84,0.48,0.71,0,1018.3,8,10,246,3.46
Pierce County,Washington,Summer,47.0958,-122.2356,9/15/1998,Class A,78.38,53.15,51.6,0.67,0.29,0.84,0,1010.79,5,9.02,336,3.93
Medina County,Ohio,Fall,41.06019,-81.79669,10/1/2000,Class A,72.08,54.83,51.81,0.73,0.4,0.13,0,1018.46,5,7.96,180,6.63
Jefferson County,Ohio,Spring,40.42591,-80.6616,5/1/2004,Class A,79.01,62.75,56.71,0.67,0.53,0.38,0.001,1014.63,7,10,196,8.17
Anchorage County,Alaska,Winter,61.09085,-149.7667,12/12/2003,Class B,24.67,17.93,20.83,0.94,0.67,0.62,0.0003,980.34,0,9.88,38,0.13
Pendleton County,West Virginia,Fall,38.8554,-79.3999,10/16/2001,Class B,56.49,36.27,37.28,0.9,0.45,0.01,0.0076,1016.86,4,7.2,251,7.26
Prince of Wales County,Alaska,Spring,55.4555,-132.7333,5/13/2001,Class B,47.66,42.41,36.98,0.79,0.94,0.7,0.0122,1007.08,4,9.17,136,11.54
Matagorda County,Texas,Spring,28.8,-96.04472,6/30/2004,Class B,82.36,77.06,75.71,0.88,0.31,0.43,0.0159,1016.98,10,8.24,111,2.35
Geauga County,Ohio,Winter,41.44442,-81.20629,2/5/1978,Class A,17.57,0.09,8.17,0.81,1,0.93,0.0039,1023.94,2,4.2,357,2.97
Guernsey County,Ohio,Spring,40.0799,-81.49697,4/17/2004,Class B,80.07,57.35,49.6,0.62,0.12,0.94,,1021.3,8,9.7,224,5.88
Palo Pinto County,Texas,Summer,32.83333,-98.38333,10/31/2004,Class B,69.91,59.59,61.43,0.96,0.64,0.61,0.0112,1008.46,4,8.02,294,0.85
White County,Georgia,Spring,34.7064,-83.8329,6/15/2005,Class B,79.87,53.92,63.14,0.78,0.01,0.27,0,1010.85,11,8.29,312,2.36
Clackamas County,Oregon,Summer,45.1867,-122.3803,6/20/2004,Class B,86.44,55.27,47.56,0.5,0,0.09,0,1017.78,10,10,335,1.14
Miller County,Missouri,Spring,38.305,-92.411,12/5/2004,Class A,47.82,48.09,36.34,0.83,0.54,0.78,0.007,1011.89,2,9.01,145,3.8
Butte County,California,Summer,39.53722,-121.4822,6/21/2004,Class B,91.36,61.05,54.93,0.52,0.01,0.12,0,1010.12,11,9.19,168,2.17
Monroe County,New York,Summer,43.2696,-77.664,7/27/2005,Class B,70.64,57.7,65.73,0.91,0.89,0.73,0.0398,1009.85,4,7.63,334,1.79
Desha County,Arkansas,Spring,33.7985,-91.27056,5/15/2001,Class A,89.93,66.12,60.01,0.57,0.04,0.76,,1016.07,10,8.61,204,6.9
Morrow County,Ohio,Summer,40.46339,-82.82576,6/20/1978,Class A,82.73,67.61,56.8,0.62,0.39,0.48,0,1018.4,8,6.04,178,6.06
Polk County,Oregon,Fall,44.8458,-123.5834,10/15/1991,Class B,66.08,47.84,41.1,0.75,0,0.25,0,1013.05,4,9.63,191,3.96
Plymouth County,Massachusetts,Summer,42.12697,-70.97559,7/13/1979,Class B,90.76,71.52,68.33,0.71,0.34,0.64,0,1010.37,10,5.3,259,2.78
Jefferson County,Washington,Fall,47.9237,-122.8531,9/15/2001,Class B,65.23,49.4,53.3,0.95,0.24,0.94,,1015.34,5,7.74,299,1.94
Jackson County,Oregon,Summer,42.6,-122.475,7/3/2004,Class A,80.12,48.97,52.26,0.61,0.15,0.55,0,1014.24,10,10,306,2.16
Sanders County,Montana,Spring,47.62167,-115.3903,3/14/2004,Class A,50.66,30.44,25.41,0.55,0.89,0.78,0,1015.81,3,9.91,273,1.44
St. Louis County,Minnesota,Summer,47.27147,-93.02428,7/17/2004,Class A,77.73,48.52,54.36,0.71,0.1,0.02,0,1019.06,8,8.87,160,1.15
Archuleta County,Colorado,Spring,37.38334,-107.4667,6/1/2004,Class B,67.88,30.69,18.18,0.29,0.01,0.45,0,1011.77,12,9.75,291,1.64
Harrison County,Ohio,Summer,40.42687,-81.2558,7/18/2004,Class B,74.73,60.34,62.72,0.87,0.54,0.04,,1011.78,6,6.29,16,2.92
Liberty County,Texas,Unknown,30.08333,-94.86667,7/22/2004,Class A,87.95,73.03,75.04,0.87,0.57,0.17,0.0412,1014.65,6,10,119,1.83
Gregg County,Texas,Winter,32.51667,-94.9,8/16/2004,Class A,88.99,65.52,59.43,0.57,0.21,0.02,0,1021.76,10,9.96,117,2.61
Island County,Washington,Fall,48.247,-122.6916,10/15/2002,Class B,57.74,47.39,43.45,0.74,0.05,0.33,,1020.6,3,8.93,287,4.4
Buchanan County,Iowa,Summer,42.28422,-91.68192,9/12/2004,Class A,84.87,57.91,59.36,0.72,0,0.93,,1018.03,7,8.74,156,4.73
Santa Rosa County,Florida,Summer,30.56775,-86.6913,6/1/2000,Class A,86.17,68.93,67.07,0.72,0.24,0.97,0,1020.39,8,7.9,172,3.87
King County,Washington,Summer,47.40245,-121.5633,7/22/2004,Class B,86.72,62.17,53.91,0.59,0,0.17,0,1018.94,9,10,329,0.43
Snohomish County,Washington,Fall,48.21095,-122.0262,9/30/2004,Class B,61.03,45.09,49.64,0.84,0.56,0.58,0,1018.57,3,7.95,315,1.68
Trumbull County,Ohio,Summer,41.42579,-80.89096,8/7/2004,Class A,74.86,55.17,50.17,0.66,0.37,0.74,0,1017.52,7,9.84,316,1.39
Cass County,Texas,Summer,33.07639,-94.25694,8/10/2004,Class A,95.71,67.7,68.22,0.7,0.14,0.83,0,1015.59,9,8.66,303,1.55
Washington County,Florida,Summer,30.4664,-85.6316,8/8/2004,Class A,87.77,75.38,68.05,0.65,0.45,0.77,0,1016.05,9,9.62,92,6.11
Kittitas County,Washington,Summer,47.33515,-121.4044,8/18/2004,Class B,76.63,53.91,54.45,0.78,0,0.09,0,1019.52,8,10,235,0.66
Guernsey County,Ohio,Summer,40.1218,-81.5117,8/18/2004,Class A,79.64,65.25,61.33,0.8,0.21,0.08,,1014.56,9,6.02,176,4.97
Whatcom County,Washington,Summer,48.68985,-122.4078,9/7/1980,Class A,62.62,44.63,52.26,0.88,0.68,0.95,,1018.12,4,9.51,238,2.84
Sutter County,California,Summer,39.205,-121.58,7/1/1965,Class A,89.23,64.19,53.19,0.57,0,0.1,,1014.7,10,9.13,304,1.83
Columbia County,Oregon,Summer,45.7492,-122.9546,8/6/2004,Class B,69.42,57.04,55.38,0.79,0.72,0.71,0.0053,1014.22,4,9.48,192,2.62
Orange County,North Carolina,Spring,36.2058,-78.968,5/12/2004,Class B,81.92,62.64,62.33,0.74,0.2,0.79,0,1023.66,8,9.16,195,2.6
Buncombe County,North Carolina,Fall,35.7909,-82.4614,9/16/1986,Class B,76.86,56.68,59.4,0.84,0.63,0.45,0,1023.47,5,7.25,339,4.7
Giles County,Tennessee,Summer,35.20416,-87.19556,11/22/2004,Class A,59.28,55.91,54.68,0.96,0.97,0.37,0.0034,1018.73,2,5.01,74,0.73
Coos County,Oregon,Summer,43.1786,-124.3688,8/21/2004,Class B,60.99,55.37,54.89,0.94,0.83,0.19,0,1013.63,8,7.15,152,0.24
Guernsey County,Ohio,Summer,39.92781,-81.61014,8/17/2004,Class A,76.73,56.94,55.76,0.77,0.23,0.05,,1019.88,9,6.35,234,1.78
Marion County,Florida,Fall,29.07655,-81.9055,12/3/2004,Class A,64.07,48.2,41.69,0.64,0,0.71,0,1019.51,4,10,338,1.61
Waukesha County,Wisconsin,Summer,43.1575,-88.1255,8/15/1997,Class B,80.33,69.96,66.67,0.83,0.55,0.4,0.0112,1000.83,7,8.36,223,9.02
San Jacinto County,Texas,Summer,30.475,-95.09167,9/12/2004,Class A,92.24,71.49,68.12,0.74,0.35,0.93,0,1014.38,8,8.31,47,1.01
Rockingham County,New Hampshire,Summer,43.05,-70.93333,9/12/2004,Class B,74.98,56.21,52.61,0.78,0.07,0.93,0,1021.66,6,8.82,203,1.6
Southeast Fairbanks County,Alaska,Summer,62.9375,-141.5667,6/18/2004,Class A,86.24,54.31,43.18,0.39,0.33,0.03,0,1024.32,6,10,307,2.72
Jackson County,Texas,Fall,29.02611,-96.71,9/22/2004,Class A,86.19,69.87,69.96,0.77,0.43,0.29,0,1015.37,6,9.51,88,8.84
Butte County,California,Summer,39.55249,-121.5027,9/21/2004,Class B,82.35,49.01,35.24,0.34,0,0.26,0,1020.11,7,10,332,1.87
McClain County,Oklahoma,Summer,35.24194,-97.5625,9/24/2004,Class A,84.73,57.99,59.47,0.65,0.49,0.36,0,1019.94,5,9.88,38,2.29
Clackamas County,Oregon,Fall,44.9633,-122.4,9/26/2004,Class B,70.75,53.27,53.57,0.78,0.64,0.44,0,1019.35,4,10,18,0.3
Breathitt County,Kentucky,Winter,37.28205,-83.21735,1/14/1984,Class B,31.8,24.91,22.98,0.72,1,0.36,0,1032.1,2,6.79,319,5.2
Smith County,Texas,Summer,32.18333,-95.21667,10/3/2004,Class A,83.89,68.79,65.14,0.71,0.4,0.67,0,1021.93,5,8.69,55,0.92
Pierce County,Washington,Spring,47.16145,-121.8943,4/5/2003,Class B,40.65,36.49,35,0.92,0.95,0.12,0.0064,1014.25,4,8.8,180,3.12
White County,Georgia,Fall,34.68319,-83.69085,7/14/2005,Class A,85.1,70.7,69.34,0.81,0.71,0.25,0.002,1013.72,9,3.57,211,1.06
Greene County,Missouri,Fall,37.3317,-93.614,12/5/2004,Class A,49.3,49.87,38.81,0.85,0.66,0.78,0.0084,1011.64,2,6.71,149,5.7
Clallam County,Washington,Fall,48.08025,-123.7108,9/20/2004,Class B,61,47.78,42.71,0.72,0.18,0.22,0,1021.46,5,10,274,3.36
Morrow County,Ohio,Summer,40.5896,-82.82214,8/15/2002,Class A,83.49,70.15,69.71,0.83,0.58,0.26,0,1017.29,7,6.87,199,9.68
Washtenaw County,Michigan,Summer,42.36639,-83.86097,8/31/2004,Class B,78.51,55.25,57.37,0.77,0.12,0.56,0,1021.46,6,9.92,302,2.31
McKean County,Pennsylvania,Fall,41.9548,-78.65621,10/1/1963,Class A,70.05,41.97,43.38,0.71,0.03,0.44,,1024.27,5,9.79,236,3.8
Clatsop County,Oregon,Spring,45.93701,-123.5417,6/4/2004,Class B,70.69,54.16,51.4,0.82,0.34,0.56,0,1017.46,9,9.1,206,2.11
Nevada County,California,Summer,39.31917,-120.3275,8/16/2004,Class A,70.63,48.52,41.36,0.52,0.31,0.02,0,1013.93,7,10,214,0.41
Grant County,Oregon,Fall,44.9723,-118.3692,9/15/2004,Class A,53.21,34.79,42.59,0.91,0.79,0.04,0.0007,1013.89,4,9.91,213,1.39
Montgomery County,Texas,Fall,30.52694,-95.71278,10/29/2004,Class B,87.57,73.44,72.16,0.83,0.43,0.55,0,1014.79,5,9.23,167,5.02
Kosciusko County,Indiana,Spring,39.3579,-85.61,1/21/2005,Class A,26.02,19.31,10.75,0.68,0.37,0.39,0.0013,1019.84,3,9.91,68,7.96
Lake County,California,Summer,38.75,-122.7,8/13/2002,Class B,86.39,54,50.53,0.59,0.53,0.19,,1011.41,10,5.85,188,1.02
Clayton County,Georgia,Summer,33.32442,-84.2532,7/15/1984,Class A,85.72,72.73,69.17,0.72,0.53,0.58,0.007,1019.4,9,9.46,225,4.4
Vilas County,Wisconsin,Fall,46.0484,-89.66195,10/15/2001,Class B,46.41,30.18,36.7,0.87,0.8,0.96,,1013.17,2,,263,7.68
Onslow County,North Carolina,Summer,34.53784,-77.50434,7/16/1999,Class A,85.92,69.43,70.43,0.81,0.27,0.13,0.0006,1022.35,10,8.85,112,1.65
Washita County,Oklahoma,Fall,35.3011,-99.1702,9/28/1973,Class A,71.86,50.99,51.03,0.79,0.11,0.07,,1017.26,7,10,259,8.41
Montgomery County,Ohio,Summer,39.8494,-84.15971,8/15/2004,Class B,74.47,51.86,54.07,0.73,0.36,0.98,0,1025.29,6,7.7,328,1.8
Carlton County,Minnesota,Fall,46.69303,-92.49979,9/3/1977,Class B,67.65,52.38,46,0.69,0.37,0.69,0.0192,1021.44,6,9.69,103,3.61
Parker County,Texas,Winter,32.78611,-97.83334,11/20/2004,Class A,66.89,59.75,57.75,0.94,0.86,0.3,0.0063,1015.49,3,4.67,97,3.29
Lewis County,Washington,Fall,46.44165,-122.3416,11/12/2004,Class B,45.85,37.93,39.53,0.97,0.94,0.01,0,1019.99,2,6.53,91,1.39
Amherst County,Virginia,Fall,37.585,-79.052,12/7/2003,Class A,42.05,20.13,16.63,0.48,0.09,0.46,0,1018.52,2,10,314,4.37
Mason County,Washington,Fall,47.2055,-123.3958,11/1/2002,Class B,58.56,22.32,18.87,0.44,0,0.89,0,1022.69,2,10,65,1.42
Rusk County,Texas,Fall,32.01667,-94.68333,11/26/2004,Class A,65.91,55.1,48.87,0.76,0.59,0.49,0,1012.09,3,10,168,11.85
Pierce County,Washington,Summer,46.951,-122.2985,7/15/1967,Class B,79.63,52.02,43.94,0.51,0,0.29,0,1021.02,9,10,326,2.38
Montgomery County,Texas,Fall,30.405,-95.36166,11/26/2004,Class B,71.47,60.83,56.43,0.88,0.65,0.49,0.0002,1012.7,3,10,153,6.32
Benzie County,Michigan,Summer,44.51436,-85.82096,8/10/1998,Class A,82.37,62.77,63.93,0.77,0.26,0.59,,1013.24,9,7.81,351,5.1
Missoula County,Montana,Summer,47.06032,-114.0717,7/20/2004,Class A,73.35,52.71,52.85,0.71,0.41,0.1,0.0013,1015.77,8,9.96,257,1.63
Lee County,Florida,Spring,26.6878,-81.6143,12/4/2004,Class B,75.49,54.2,45.86,0.59,0,0.74,0,1019.94,4,10,41,3.4
Alpine County,California,Fall,38.45799,-120.0491,11/23/2004,Class B,42.89,23.44,24.13,0.78,0,0.41,0,1019.69,3,9.83,271,0.17
Henderson County,Texas,Spring,32.16139,-95.6,12/3/2004,Class A,58.6,37.24,37.61,0.74,0.17,0.71,0,1021.55,3,10,218,0.88
King County,Washington,Fall,47.4352,-121.7812,9/30/2004,Class B,59.32,46.77,49.87,0.88,0.62,0.58,0,1016.05,3,8.93,336,0.55
Callaway County,Missouri,Fall,38.62,-91.96238,12/6/2004,Class A,58.66,46.37,50.56,0.89,0.81,0.81,0.0109,1006.22,2,8.4,164,3.24
Weber County,Utah,Spring,41.5,-111.75,5/1/1962,Class A,57.78,41.75,21.82,0.38,0.56,0.91,,1021.76,5,10,102,3.89
Ohio County,West Virginia,Winter,40.1333,-80.68192,12/12/2004,Class A,37.97,30.29,28.72,0.78,0.95,0.03,0.0037,1006.32,2,9.16,232,11.3
Kootenai County,Idaho,Winter,47.70965,-116.9266,12/3/1988,Class A,42.01,23.28,28.67,0.92,0.4,0.82,0,1033.1,1,8.93,9,0.3
Essex County,New Jersey,Fall,40.8959,-74.2918,10/16/1971,Class A,70.61,60.52,59.41,0.89,0.91,0.92,0,1022.55,4,1.68,247,0.43
Grays Harbor County,Washington,Winter,46.988,-123.8647,12/18/2004,Class B,58.85,45.54,47.07,0.91,0.41,0.25,0.0007,1028.71,1,8.91,87,5.22
Franklin County,Virginia,Winter,37.06266,-79.82829,12/21/2004,Class A,54.42,29.21,21.44,0.56,0.44,0.35,0,1021.18,2,10,255,1.86
Clallam County,Washington,Fall,48.1368,-123.7349,10/11/2004,Class B,60.54,53.23,52.14,0.9,0.67,0.92,0,1024.82,3,10,228,1.84
Washington County,Arkansas,Fall,36.13361,-93.94389,11/15/1999,Class B,69.02,36.91,28.33,0.4,0,0.23,,1021.9,3,10,43,1.93
Umatilla County,Oregon,Winter,45.5789,-118.6016,12/15/1985,Class A,25.84,9.5,12.21,0.87,0.36,0.14,0,1034.13,1,4.44,135,1.83
Clatsop County,Oregon,Summer,46.19945,-123.9513,9/15/1993,Class A,64.03,42.97,51.6,0.81,0.44,0.98,0,1017.24,5,10,323,2.22
Uintah County,Utah,Winter,40.5,-109.9,12/25/2004,Class A,45.65,21.36,6.52,0.38,0.07,0.47,0,1027.69,2,9.83,300,1.3
Tioga County,New York,Fall,42.1174,-75.64853,10/22/2001,Class A,54.17,44.25,44.82,0.77,0.75,0.2,0.0038,1019.12,3,9.16,339,1.84
Calhoun County,Michigan,Fall,42.323,-85.05965,9/16/1974,Class A,71.13,52.29,46.76,0.7,0.13,0.02,,1020.32,6,10,187,1.5
Shelby County,Indiana,Summer,39.365,-85.8486,1/23/2005,Class A,19.32,5.38,-1.83,0.58,0.04,0.45,0.0008,1031.42,3,10,348,2.73
Santa Rosa County,Florida,Fall,31.00009,-87.00008,6/11/2006,Class B,95.21,70.27,68.05,0.69,0.28,0.49,0,1011.94,11,7.69,173,4.87
Giles County,Tennessee,Fall,35.1918,-86.9094,11/15/1989,Class B,74.4,38.4,57.3,0.84,0.9,0.59,,1006.69,3,8.06,236,7.21
Comanche County,Oklahoma,Winter,34.62944,-98.62833,1/10/2005,Class A,66.96,34.11,53.4,0.9,0.09,0.02,0,1015.04,3,6.91,188,7.05
Kinney County,Texas,Summer,29.24665,-100.4104,8/13/1994,Class B,95.04,72.89,64.16,0.55,0.2,0.23,,1014.91,9,10,135,6.39
Burlington County,New Jersey,Fall,39.652,-74.6298,12/23/2005,Class B,52.02,29.72,24.79,0.59,0.12,0.75,0,1014.85,2,9.48,219,4.01
Elk County,Pennsylvania,Summer,41.31268,-78.39445,9/30/2003,Class B,58.29,44.32,40.1,0.73,0.71,0.17,,1023.3,4,8.45,217,6.95
Whatcom County,Washington,Fall,48.9294,-122.0247,9/15/1987,Class B,58.78,48.5,46.41,0.8,0.86,0.77,,1022.83,4,10,202,9.06
McKinley County,New Mexico,Fall,35.63736,-108.8676,9/17/2002,Class A,74.6,54.8,39.32,0.44,0.41,0.38,,1005.9,8,9.79,232,12.65
Liberty County,Texas,Winter,30.01667,-94.85,1/17/2005,Class A,55.25,34.19,28.75,0.62,0.33,0.26,0,1036.12,4,10,47,2.73
Matagorda County,Texas,Summer,28.97944,-96.01666,1/17/2005,Class A,56.9,37.38,39.43,0.88,0,0.26,0,1034.72,4,9.84,51,7.52
Burleson County,Texas,Fall,30.525,-96.59167,1/17/2005,Class B,53.52,36.73,30.76,0.71,0,0.26,0.706,1035.95,4,9.04,64,1.5
Mendocino County,California,Winter,39.25,-123.15,1/16/2004,Class B,52.37,44.83,43.3,0.86,0.96,0.81,0,1017.15,2,9.96,325,0.99
Madison County,Ohio,Winter,39.96627,-83.51394,2/18/2003,Class A,28.14,28.14,22.02,0.86,1,0.56,,1020.97,3,5.57,229,9.72
Colfax County,New Mexico,Winter,36.9934,-104.4801,1/23/2005,Class A,61.35,27.91,19.71,0.52,0,0.45,0,1022.72,3,10,249,1.67
Spokane County,Washington,Summer,47.62769,-117.3606,2/15/2005,Class A,35.43,16.81,12.58,0.6,0.17,0.24,0,1028.82,2,10,352,0.55
Missoula County,Montana,Winter,46.75889,-114.08,1/23/2005,Class B,55.5,27.77,29.04,0.58,0.53,0.45,0,1023.98,2,6.19,246,0.36
